name,brand,address,town,county,latitude,longitude,fuel,price,dateupdated
Maxol,Maxol,"Dublin Rd, Pollerton Little",Carlow,Carlow,52.8475912,-6.8988632,Petrol,198.9,2026-03-20
Maxol,Maxol,"Dublin Rd, Pollerton Little",Carlow,Carlow,52.8475912,-6.8988632,Diesel,223.9,2026-03-20
Centra Carlow,Maxol,"Maxol service Station, O'Brien Rd, Rathnapish",Carlow,Carlow,52.841381999999996,-6.9088259999999995,Petrol,201.9,2026-03-20
Centra Carlow,Maxol,"Maxol service Station, O'Brien Rd, Rathnapish",Carlow,Carlow,52.841381999999996,-6.9088259999999995,Diesel,224.9,2026-03-20
Circle K Deerpark,Circle K,"N80, Dublin Rd",Deerpark,Carlow,52.845952999999994,-6.9109929999999995,Petrol,199.9,2026-03-20
Circle K Deerpark,Circle K,"N80, Dublin Rd",Deerpark,Carlow,52.845952999999994,-6.9109929999999995,Diesel,228.9,2026-03-20
"Maxol Service Station, Hannon's",Maxol,"O'Brien Rd, Rathnapish",Carlow,Carlow,52.841634899999995,-6.909082,Petrol,199.9,2026-03-20
"Maxol Service Station, Hannon's",Maxol,"O'Brien Rd, Rathnapish",Carlow,Carlow,52.841634899999995,-6.909082,Diesel,222.9,2026-03-20
Circle K Greenlane,Circle K,"Green Ln, Rathnapish",Carlow,Carlow,52.8399039,-6.919134,Petrol,199.9,2026-03-20
Circle K Greenlane,Circle K,"Green Ln, Rathnapish",Carlow,Carlow,52.8399039,-6.919134,Diesel,228.9,2026-03-20
Applegreen Tullow,Applegreen,"R725, Thomas Traynor St, Tullowbeg",Tullow,Carlow,52.80295083459569,-6.739650394452639,Petrol,189.9,2026-03-19
Applegreen Tullow,Applegreen,"R725, Thomas Traynor St, Tullowbeg",Tullow,Carlow,52.80295083459569,-6.739650394452639,Diesel,219.9,2026-03-19
Circle K Junction 5 M9,Circle K,"Junction 5, M9, Rathcrogue",Knockraheen,Carlow,52.8024722,-6.882911699999999,Petrol,188.8,2026-03-13
Circle K Junction 5 M9,Circle K,"Junction 5, M9, Rathcrogue",Knockraheen,Carlow,52.8024722,-6.882911699999999,Diesel,209.9,2026-03-13
Nolans Spar Ballon,Texaco,Main St,Ballon,Carlow,52.742428208977145,-6.771728572682747,Petrol,186.9,2026-03-13
Nolans Spar Ballon,Texaco,Main St,Ballon,Carlow,52.742428208977145,-6.771728572682747,Diesel,202.9,2026-03-13
Zerafa's Maxol Service Station,Maxol,"N80, Main St",Ballon,Carlow,52.737102,-6.768102,Petrol,185.9,2026-03-13
Zerafa's Maxol Service Station,Maxol,"N80, Main St",Ballon,Carlow,52.737102,-6.768102,Diesel,199.9,2026-03-13
Munnelly's Service Station,Great Gas,"Kilkenny Rd, Mortarstown Upper",Carlow,Carlow,52.82604464079401,-6.938188535122208,Petrol,179.9,2026-03-08
Munnelly's Service Station,Great Gas,"Kilkenny Rd, Mortarstown Upper",Carlow,Carlow,52.82604464079401,-6.938188535122208,Diesel,196.9,2026-03-08
Borris Service Station,Top,"R705, Factory Cross",Borris,Carlow,52.60431236692642,-6.937211199545914,Petrol,179.9,2026-03-07
Borris Service Station,Top,"R705, Factory Cross",Borris,Carlow,52.60431236692642,-6.937211199545914,Diesel,198.9,2026-03-07
Inver Carlow,Inver,"R924, Church St, Graigue",Carlow,Carlow,52.83857417513764,-6.942797050836475,Petrol,176.5,2026-02-16
Inver Carlow,Inver,"R924, Church St, Graigue",Carlow,Carlow,52.83857417513764,-6.942797050836475,Diesel,176.5,2026-02-16
Circle K,Circle K,Tullow Rd,Carlow,Carlow,52.83192,-6.909052099999999,Petrol,175.9,2026-02-12
Circle K,Circle K,Tullow Rd,Carlow,Carlow,52.83192,-6.909052099999999,Diesel,175.9,2026-02-12
Applegreen,Applegreen,Tullow Rd,Carlow,Carlow,52.8311607,-6.9064480999999995,Petrol,174.8,2026-02-12
Applegreen,Applegreen,Tullow Rd,Carlow,Carlow,52.8311607,-6.9064480999999995,Diesel,174.8,2026-02-12
O'Reillys Service Station,Top,"Moffat Lane, Eaglehill",Hacketstown,Carlow,52.864946251305895,-6.560235517573602,Petrol,174.9,2026-01-30
O'Reillys Service Station,Top,"Moffat Lane, Eaglehill",Hacketstown,Carlow,52.864946251305895,-6.560235517573602,Diesel,174.9,2026-01-30
Certa Fuel Depot,Certa,"Maryborough St, Graigue",Carlow,Carlow,52.838823243981835,-6.937671354417574,Diesel,170.9,2025-10-30
Drive service station,NA,"14 Seskin Rd, Coneykeare",Leighlinbridge,Carlow,52.7385264,-6.985589999999999,Petrol,176.9,2025-10-09
Drive service station,NA,"14 Seskin Rd, Coneykeare",Leighlinbridge,Carlow,52.7385264,-6.985589999999999,Diesel,172.9,2025-10-09
Certa 24/7,Certa,"R705, Upper Kilree St, Muine Bheag",Bagenalstown,Carlow,52.70022642589922,-6.957355042120184,Petrol,166.9,2025-06-03
Certa 24/7,Certa,"R705, Upper Kilree St, Muine Bheag",Bagenalstown,Carlow,52.70022642589922,-6.957355042120184,Diesel,163.9,2025-06-03
Corrigan's Inver Bagenalstown,Inver,"R705, Kilree",Bagenalstown,Carlow,52.688452324144095,-6.963580184896671,Petrol,165.9,2025-06-03
Corrigan's Inver Bagenalstown,Inver,"R705, Kilree",Bagenalstown,Carlow,52.688452324144095,-6.963580184896671,Diesel,162.9,2025-06-03
Applegreen,Applegreen,"Killeshin Rd, Ballykillen",Carlow,Carlow,52.8403657,-6.958857000000001,Petrol,175.8,2025-04-13
Centra Mullagh,NA,Ardlo Manor,Mullagh,Cavan,53.812196,-6.949413,Petrol,210.9,2026-03-20
Centra Mullagh,NA,Ardlo Manor,Mullagh,Cavan,53.812196,-6.949413,Diesel,235.9,2026-03-20
Top Oil Arva Brady's Service Station,Top,Drumalt,Arvagh,Cavan,53.921939699999996,-7.581534400000001,Diesel,216.9,2026-03-20
Top Oil Rudden Service Station,Top,"Railway Rd, Drumavanagh",Cavan,Cavan,53.990703499999995,-7.365582700000001,Petrol,195.9,2026-03-20
Top Oil Rudden Service Station,Top,"Railway Rd, Drumavanagh",Cavan,Cavan,53.990703499999995,-7.365582700000001,Diesel,215.9,2026-03-20
Go HGV 24/7 Express,Go,"R212, Dublin Rd",Cavan,Cavan,53.9845117,-7.3489979,Petrol,189.9,2026-03-18
Go HGV 24/7 Express,Go,"R212, Dublin Rd",Cavan,Cavan,53.9845117,-7.3489979,Diesel,209.9,2026-03-18
Circle K Cavan,Circle K,"Dublin Rd, Killygarry",Cavan,Cavan,53.984751499999994,-7.329288099999999,Petrol,212.9,2026-03-18
Circle K Cavan,Circle K,"Dublin Rd, Killygarry",Cavan,Cavan,53.984751499999994,-7.329288099999999,Diesel,220.9,2026-03-18
Applegreen,Applegreen,"Dublin Rd, Lisnananagh",Cavan,Cavan,53.9849111,-7.256798099999999,Petrol,189.9,2026-03-18
Applegreen,Applegreen,"Dublin Rd, Lisnananagh",Cavan,Cavan,53.9849111,-7.256798099999999,Diesel,209.9,2026-03-18
Ballinagh Service Station,Klass Oil,"N55, Bellananagh",Ballinagh,Cavan,53.9334056,-7.4080246,Petrol,186.9,2026-03-13
Ballinagh Service Station,Klass Oil,"N55, Bellananagh",Ballinagh,Cavan,53.9334056,-7.4080246,Diesel,205.9,2026-03-13
Maxol Service Station Cullies,Maxol,Cullies,Cavan,Cavan,54.0098166,-7.355987900000001,Diesel,199.9,2026-03-10
Certa Cavan,Certa,"Farnham Rd, Drumavanagh",Cavan,Cavan,53.996236884832655,-7.369778250351374,Diesel,206.9,2026-03-10
Applegreen,Applegreen,Cootehill Rd,Drumalee,Cavan,54.001075099999994,-7.3535686,Diesel,185.8,2026-03-07
Lynch's Killydoon ,Emo,"L2527, Main St, Killydoon",Loughduff,Cavan,53.866293399999996,-7.440544300000001,Petrol,178.9,2026-01-31
Lynch's Killydoon ,Emo,"L2527, Main St, Killydoon",Loughduff,Cavan,53.866293399999996,-7.440544300000001,Diesel,178.9,2026-01-31
Circle K,Circle K,"Dublin Road, Knockanoark",Cavan,Cavan,53.964828499999996,-7.229530100000001,Petrol,173.9,2026-01-31
Circle K,Circle K,"Dublin Road, Knockanoark",Cavan,Cavan,53.964828499999996,-7.229530100000001,Diesel,173.9,2026-01-31
MACE Belturbet,NA,Kilconny,Belturbet,Cavan,54.101727,-7.45079,Petrol,177.9,2025-11-23
MACE Belturbet,NA,Kilconny,Belturbet,Cavan,54.101727,-7.45079,Diesel,176.9,2025-11-23
Top Oil Service Station Drumacon,Top,Drumacon,Belturbet,Cavan,54.102075899999996,-7.4648452,Petrol,177.9,2025-11-23
Top Oil Service Station Drumacon,Top,Drumacon,Belturbet,Cavan,54.102075899999996,-7.4648452,Diesel,176.9,2025-11-23
Go 24hr,Go,"N16, Sligo Rd, Tuam",Blacklion,Cavan,54.291678499999996,-7.878830400000001,Petrol,155.9,2025-11-23
Go 24hr,Go,"N16, Sligo Rd, Tuam",Blacklion,Cavan,54.291678499999996,-7.878830400000001,Diesel,155.9,2025-11-23
Kiernans Texaco Service Station/Spar,Texaco,Dublin Road,Cavan,Cavan,53.984007999999996,-7.3311223,Petrol,173.9,2025-08-03
Kiernans Texaco Service Station/Spar,Texaco,Dublin Road,Cavan,Cavan,53.984007999999996,-7.3311223,Diesel,172.9,2025-08-03
Daybreak,Applegreen,"N3, Dublin Road, Rahardrum",Virginia,Cavan,53.834397589775136,-7.076945313730562,Petrol,174.8,2025-08-03
Daybreak,Applegreen,"N3, Dublin Road, Rahardrum",Virginia,Cavan,53.834397589775136,-7.076945313730562,Diesel,174.8,2025-08-03
Yore's Garage,Top,"Stramatt, Lisduff",Virginia,Cavan,53.79729317035295,-7.0310726182927406,Petrol,179.9,2025-08-03
Yore's Garage,Top,"Stramatt, Lisduff",Virginia,Cavan,53.79729317035295,-7.0310726182927406,Diesel,179.9,2025-08-03
McMullens Daybreak,Go,"Bridge St, Munnilly",Cootehill,Cavan,54.0743705,-7.0847728,Diesel,164.9,2024-07-29
Skelly’s Mace,Go,"R194, Killyfinla",Ballyjamesduff,Cavan,53.864841,-7.1905339999999995,Petrol,174.9,2025-05-03
Skelly’s Mace,Go,"R194, Killyfinla",Ballyjamesduff,Cavan,53.864841,-7.1905339999999995,Diesel,169.9,2025-05-03
Circle K Express,Circle K,"N3, Main St, Lisduff",Virginia,Cavan,53.798927,-7.0323009999999995,Petrol,184.9,2024-05-25
Circle K Express,Circle K,"N3, Main St, Lisduff",Virginia,Cavan,53.798927,-7.0323009999999995,Diesel,179.9,2024-05-25
Ballyjamesduff Co Op Stores,Top,"R194, Granard Rd, Ramonan",Ballyjamesduff,Cavan,53.86048351662319,-7.213685983530979,Diesel,166,2025-05-15
Drumrora Stores,Independent,Drumroragh,Ballyjamesduff,Cavan,53.84820786501598,-7.2553708894491535,Diesel,167.9,2025-05-05
BJD Service Station,Independent,"Dublin Street, Derrylurgan",Ballyjamesduff,Cavan,53.864713154169465,-7.207121141824217,Petrol,172.9,2025-05-03
BJD Service Station,Independent,"Dublin Street, Derrylurgan",Ballyjamesduff,Cavan,53.864713154169465,-7.207121141824217,Diesel,169.9,2025-05-03
Centra Belturbet,NA,Corporation Lands,Erne,Cavan,54.0988699,-7.431250199999999,Petrol,181.9,2025-03-10
Centra Belturbet,NA,Corporation Lands,Erne,Cavan,54.0988699,-7.431250199999999,Diesel,177.9,2025-03-10
Circle K Roxboro,Circle K,"Roxboro Road, Rathbane North",Limerick,Clare,52.6489013,-8.617809300000001,Petrol,199.9,2026-03-20
Circle K Roxboro,Circle K,"Roxboro Road, Rathbane North",Limerick,Clare,52.6489013,-8.617809300000001,Diesel,228.9,2026-03-20
"Maxol Service Station, Whelan's",Maxol,"Ennis Rd, Kilrush, Co. Clare",Drimna,Clare,52.6419163,-9.479028699999999,Petrol,181.9,2025-10-29
"Maxol Service Station, Whelan's",Maxol,"Ennis Rd, Kilrush, Co. Clare",Drimna,Clare,52.6419163,-9.479028699999999,Diesel,176.9,2025-10-29
Gala,Inver,"R473, Kildysart Rd, Ballaghafadda East",Clarecastle,Clare,52.820782342635596,-8.977579857273156,Petrol,170.9,2025-10-14
Gala,Inver,"R473, Kildysart Rd, Ballaghafadda East",Clarecastle,Clare,52.820782342635596,-8.977579857273156,Diesel,166.9,2025-10-14
Circle K Express Ennistymon,Circle K,"N85 Ennis Rd, Ennistimon",Ennistymon,Clare,52.936524,-9.287554,Petrol,174.9,2025-09-21
Circle K Express Ennistymon,Circle K,"N85 Ennis Rd, Ennistimon",Ennistymon,Clare,52.936524,-9.287554,Diesel,172.9,2025-09-21
Circle K Shannon,Circle K,Tullyvarraga,Shannon,Clare,52.7126169,-8.8754823,Petrol,173.1,2025-09-18
Barron's Raheen,Circle K,Blackwater,Ardnacrusha,Clare,52.626573300000004,-8.6641494,Petrol,173.9,2025-06-03
Barron's Raheen,Circle K,Blackwater,Ardnacrusha,Clare,52.626573300000004,-8.6641494,Diesel,165.9,2025-06-03
Western Service Station,Applegreen,"R469, Quin Road, Bunnow",Ennis,Clare,52.8383991,-8.964718,Petrol,171.6,2025-06-24
Western Service Station,Applegreen,"R469, Quin Road, Bunnow",Ennis,Clare,52.8383991,-8.964718,Diesel,166.8,2025-06-24
electric filling station,NA,"1 Bank Pl, Clonroad Beg",Ennis,Clare,52.8448814,-8.983435799999999,Petrol,178.9,2024-08-05
electric filling station,NA,"1 Bank Pl, Clonroad Beg",Ennis,Clare,52.8448814,-8.983435799999999,Diesel,169.9,2024-08-05
Circle K,Circle K,"Limerick Rd, Clonroad More",Ennis,Clare,52.830807300000004,-8.9795933,Petrol,176.9,2024-08-05
Circle K,Circle K,"Limerick Rd, Clonroad More",Ennis,Clare,52.830807300000004,-8.9795933,Diesel,169.9,2024-08-05
Applegreen,Applegreen,"Limerick Rd, Clonroad More",Ennis,Clare,52.8355942,-8.982453,Petrol,176.9,2024-08-10
Applegreen,Applegreen,"Limerick Rd, Clonroad More",Ennis,Clare,52.8355942,-8.982453,Diesel,168.9,2024-08-10
Fitzpatricks Circle K Service Station/Costcutter,Circle K,"Ennis Rd, Kilmihil",Kilmihill,Clare,52.720579799999996,-9.3161829,Petrol,174.9,2024-12-08
Fitzpatricks Circle K Service Station/Costcutter,Circle K,"Ennis Rd, Kilmihil",Kilmihill,Clare,52.720579799999996,-9.3161829,Diesel,169.9,2024-12-08
Maxol Service Station Clarecastle,Maxol,Clareabbey,Ennis,Clare,52.8240919,-8.9773152,Petrol,176.9,2024-12-10
Maxol Service Station Clarecastle,Maxol,Clareabbey,Ennis,Clare,52.8240919,-8.9773152,Diesel,172.9,2024-12-10
Top Oil Kinsale Service Station,Top,"Barracks Ln, Waters-Land South",Kinsale,Rk,51.7079172,-8.5146173,Petrol,199.9,2026-03-20
Top Oil Kinsale Service Station,Top,"Barracks Ln, Waters-Land South",Kinsale,Rk,51.7079172,-8.5146173,Diesel,219.9,2026-03-20
Esso Tiknock,Esso,"Tiknock, Co. Cork, Ireland",Cobh,Rk,51.8606548,-8.2940727,Petrol,197.8,2026-03-20
Esso Tiknock,Esso,"Tiknock, Co. Cork, Ireland",Cobh,Rk,51.8606548,-8.2940727,Diesel,217.8,2026-03-20
BRODERICK’S,NA,"Shanagarry South, Co. Cork, Ireland",Old,Rk,51.8521176,-8.0382552,Petrol,200.9,2026-03-20
BRODERICK’S,NA,"Shanagarry South, Co. Cork, Ireland",Old,Rk,51.8521176,-8.0382552,Diesel,230.9,2026-03-20
O'Reillys Service Station,Texaco,10 Leitrim St,Cork,Rk,51.9037485,-8.4721739,Petrol,196.9,2026-03-20
O'Reillys Service Station,Texaco,10 Leitrim St,Cork,Rk,51.9037485,-8.4721739,Diesel,212.9,2026-03-20
Maxol,Maxol,Shean Lower,Cork,Rk,51.93335,-8.560748199999999,Petrol,196.9,2026-03-20
Maxol,Maxol,Shean Lower,Cork,Rk,51.93335,-8.560748199999999,Diesel,219.9,2026-03-20
Circle K Frankfield,Circle K,"Frankfield Service Station, Kinsale Rd, Curraghconway",Cork,Rk,51.8718948,-8.470537799999999,Petrol,199.9,2026-03-20
Circle K Frankfield,Circle K,"Frankfield Service Station, Kinsale Rd, Curraghconway",Cork,Rk,51.8718948,-8.470537799999999,Diesel,228.9,2026-03-20
O'Leary's Filling Station,Circle K,"R617, St Ann's Hill, Kilnamucky, Tower",Blarney,Rk,51.92540880385528,-8.608375487304045,Diesel,215.9,2026-03-20
Applegreen,Applegreen,"Harbour View Rd, Knocknaheeney",Hollyhill,Rk,51.9026113,-8.5083933,Diesel,209.9,2026-03-20
Certa 24/7,Certa,"R907, Cork Rd, Knockgriffin",Midleton,Rk,51.914957099999995,-8.180759199999999,Petrol,191.9,2026-03-20
Certa 24/7,Certa,"R907, Cork Rd, Knockgriffin",Midleton,Rk,51.914957099999995,-8.180759199999999,Diesel,212.9,2026-03-20
Maxol Service Station Ballincollig,Maxol,"Main Street, Ballincollig",Cork,Rk,51.885740399999996,-8.6098626,Petrol,199.9,2026-03-20
Maxol Service Station Ballincollig,Maxol,"Main Street, Ballincollig",Cork,Rk,51.885740399999996,-8.6098626,Diesel,219.9,2026-03-20
Applegreen,Applegreen,"Lisheens House, Ballincollig",Cork,Rk,51.881776699999996,-8.6283117,Petrol,191.8,2026-03-20
Applegreen,Applegreen,"Lisheens House, Ballincollig",Cork,Rk,51.881776699999996,-8.6283117,Diesel,209.8,2026-03-20
Maxol Service Station Ballinrea,Maxol,"Cork Rd, Ballinrea",Cork,Rk,51.836480099999996,-8.3947202,Petrol,199.9,2026-03-20
Maxol Service Station Ballinrea,Maxol,"Cork Rd, Ballinrea",Cork,Rk,51.836480099999996,-8.3947202,Diesel,219.9,2026-03-20
Circle K Lakeview,Circle K,"Whitegate Road Midleton Lakeview, Castleredmond, Co. Cork",Midleton,Rk,51.905134999999994,-8.1674568,Petrol,199.9,2026-03-20
Circle K Lakeview,Circle K,"Whitegate Road Midleton Lakeview, Castleredmond, Co. Cork",Midleton,Rk,51.905134999999994,-8.1674568,Diesel,219.9,2026-03-20
Fitzgibbon's Garage,Silverstream,"N25, 2 Youghal Rd, Killeagh Gardens",Killeagh,Rk,51.9423653,-7.9915538999999995,Petrol,199.9,2026-03-20
Fitzgibbon's Garage,Silverstream,"N25, 2 Youghal Rd, Killeagh Gardens",Killeagh,Rk,51.9423653,-7.9915538999999995,Diesel,215.9,2026-03-20
Burgess Filling Station,Swift,"N25, Burgess",Killeagh,Rk,51.9378868,-7.9478561,Petrol,199.9,2026-03-20
Burgess Filling Station,Swift,"N25, Burgess",Killeagh,Rk,51.9378868,-7.9478561,Diesel,218.9,2026-03-20
Circle K Express Blackrock,Circle K Express,"R853, a2 Blackrock Rd/Castle Rd",Cork,Rk,51.89661605428731,-8.420820483939366,Petrol,199.9,2026-03-19
Circle K Express Blackrock,Circle K Express,"R853, a2 Blackrock Rd/Castle Rd",Cork,Rk,51.89661605428731,-8.420820483939366,Diesel,216.9,2026-03-19
Maxol Service Station Bandon Road,Maxol,"Bandon Road, Kilmurriheen, Waterfall",Cork,Rk,51.840955,-8.5316817,Petrol,193.9,2026-03-19
Maxol Service Station Bandon Road,Maxol,"Bandon Road, Kilmurriheen, Waterfall",Cork,Rk,51.840955,-8.5316817,Diesel,214.9,2026-03-19
Circle K Bishopstown,Circle K,"Bandon Road, Ardarostig",Cork,Rk,51.8727502,-8.5234363,Petrol,199.9,2026-03-19
Circle K Bishopstown,Circle K,"Bandon Road, Ardarostig",Cork,Rk,51.8727502,-8.5234363,Diesel,219.9,2026-03-19
Maxol Service Station Carriglaine,Maxol,Cork Rd,Carrigaline,Rk,51.8196369,-8.3918146,Petrol,195.9,2026-03-19
Maxol Service Station Carriglaine,Maxol,Cork Rd,Carrigaline,Rk,51.8196369,-8.3918146,Diesel,218.9,2026-03-19
East Cork Oil,Swift,"R639, Bride St, Bridgeland East",Rathcormac,Rk,52.07312901986259,-8.282662622480558,Petrol,199.9,2026-03-19
East Cork Oil,Swift,"R639, Bride St, Bridgeland East",Rathcormac,Rk,52.07312901986259,-8.282662622480558,Diesel,218.9,2026-03-19
Top South Link,Top,"N27, South City Link Rd, Ballintemple",Cork,Rk,51.89462131355015,-8.462291390552707,Petrol,198.9,2026-03-19
Top South Link,Top,"N27, South City Link Rd, Ballintemple",Cork,Rk,51.89462131355015,-8.462291390552707,Diesel,215.9,2026-03-19
"Maxol Service Station, O'Hare",Maxol,"Townparks, Mill Road, Co. Cork",Midleton,Rk,51.917883499999995,-8.1751843,Petrol,197.9,2026-03-19
"Maxol Service Station, O'Hare",Maxol,"Townparks, Mill Road, Co. Cork",Midleton,Rk,51.917883499999995,-8.1751843,Diesel,211.9,2026-03-19
Circle K,Circle K,Carrigaline Road,Carrigaline,Rk,51.819905999999996,-8.391821,Petrol,194.9,2026-03-18
Circle K,Circle K,Carrigaline Road,Carrigaline,Rk,51.819905999999996,-8.391821,Diesel,211.9,2026-03-18
Maxol Service Station Skehard Road,Maxol,"Skehard Rd, Mahon",Cork,Rk,51.890009899999995,-8.4125569,Petrol,191.9,2026-03-18
Maxol Service Station Skehard Road,Maxol,"Skehard Rd, Mahon",Cork,Rk,51.890009899999995,-8.4125569,Diesel,209.9,2026-03-18
Top Oil Cobh Cross Service Station,Top,"Junction 3 Carrigtwohill, Killacloyne",Cobh,Rk,51.9084355,-8.2887927,Petrol,190.9,2026-03-18
Top Oil Cobh Cross Service Station,Top,"Junction 3 Carrigtwohill, Killacloyne",Cobh,Rk,51.9084355,-8.2887927,Diesel,209.9,2026-03-18
Circle K Douglas,Circle K,"E Douglas St, Douglas",Cork,Rk,51.8780691,-8.4363414,Petrol,191.9,2026-03-18
Circle K Douglas,Circle K,"E Douglas St, Douglas",Cork,Rk,51.8780691,-8.4363414,Diesel,212.9,2026-03-18
Circle K,Circle K,Ballytrasna,Little,Rk,51.9037771,-8.3518514,Petrol,195.9,2026-03-18
Circle K,Circle K,Ballytrasna,Little,Rk,51.9037771,-8.3518514,Diesel,214.9,2026-03-18
Circle K,Circle K,"Cork Airport, Rathmacullig West",Cork,Rk,51.8483029,-8.4809898,Petrol,191.8,2026-03-18
Circle K,Circle K,"Cork Airport, Rathmacullig West",Cork,Rk,51.8483029,-8.4809898,Diesel,212.9,2026-03-18
Circle K Express Riverstick,Circle K,"Curra, Riverside Grove, Co. Cork",Riverstick,Rk,51.771882999999995,-8.495443999999999,Petrol,196.9,2026-03-18
Circle K Express Riverstick,Circle K,"Curra, Riverside Grove, Co. Cork",Riverstick,Rk,51.771882999999995,-8.495443999999999,Diesel,210.9,2026-03-18
Allen & Company,Campus,"Campus Service Station, Lybe",Belgooly,Rk,51.737232,-8.4835856,Petrol,195.9,2026-03-17
Allen & Company,Campus,"Campus Service Station, Lybe",Belgooly,Rk,51.737232,-8.4835856,Diesel,215.9,2026-03-17
Circle K Mitchelstown,Circle K,"Mitchelstown, Brigown, Co. Cork",Mitchelstown,Rk,52.262671999999995,-8.271023999999999,Petrol,190.9,2026-03-16
Circle K Mitchelstown,Circle K,"Mitchelstown, Brigown, Co. Cork",Mitchelstown,Rk,52.262671999999995,-8.271023999999999,Diesel,209.9,2026-03-16
Mitchelstown Service Station,Amber,"R513, Brigown, Ballinwillin",Mitchelstown,Rk,52.269719599999995,-8.2707222,Petrol,189.9,2026-03-16
Mitchelstown Service Station,Amber,"R513, Brigown, Ballinwillin",Mitchelstown,Rk,52.269719599999995,-8.2707222,Diesel,206.9,2026-03-16
Maxol Service Station Mitchelstown,Maxol,Mallow - Dublin Rd,Mitchelstown,Rk,52.2709447,-8.2708814,Petrol,190.9,2026-03-16
Maxol Service Station Mitchelstown,Maxol,Mallow - Dublin Rd,Mitchelstown,Rk,52.2709447,-8.2708814,Diesel,209.9,2026-03-16
Centra Charleville,Circle K,"N20, Limerick Rd, Rathgoggan Middle",Charleville,Rk,52.360545,-8.682388999999999,Diesel,209.9,2026-03-16
Circle K Express,Circle K,"Dublin Rd, Carrignagroghera",Fermoy,Rk,52.145676599999994,-8.2778375,Petrol,190.9,2026-03-14
Circle K Express,Circle K,"Dublin Rd, Carrignagroghera",Fermoy,Rk,52.145676599999994,-8.2778375,Diesel,207.9,2026-03-14
Inver Fermoy,Inver,"Dublin Rd, Carrignagroghera",Fermoy,Rk,52.1509223,-8.278359499999999,Petrol,186.9,2026-03-14
Circle K Fermoy J14 M8,Circle K,"R639, J14, M8, Gortore, Moorepark West",Fermoy,Rk,52.164839674661806,-8.263991268868892,Petrol,187.9,2026-03-12
Circle K Fermoy J14 M8,Circle K,"R639, J14, M8, Gortore, Moorepark West",Fermoy,Rk,52.164839674661806,-8.263991268868892,Diesel,205.9,2026-03-12
Texaco Roche's,Texaco,"Carrigane Rd, Carrigtohill",Carrigtwohill,Rk,51.9098654,-8.2543008,Petrol,184.9,2026-03-12
Texaco Roche's,Texaco,"Carrigane Rd, Carrigtohill",Carrigtwohill,Rk,51.9098654,-8.2543008,Diesel,195.9,2026-03-12
Marina Filling Station,NA,"Victoria Rd, Monahan Rd, Ballintemple",Cork,Rk,51.8967648,-8.457802899999999,Petrol,189.9,2026-03-11
Marina Filling Station,NA,"Victoria Rd, Monahan Rd, Ballintemple",Cork,Rk,51.8967648,-8.457802899999999,Diesel,208.9,2026-03-11
Maxol Service Station Boreenmanna Rd,Maxol,"Boreenmanna Rd, Ballintemple",Cork,Rk,51.8909343,-8.4449502,Petrol,186.9,2026-03-11
Maxol Service Station Boreenmanna Rd,Maxol,"Boreenmanna Rd, Ballintemple",Cork,Rk,51.8909343,-8.4449502,Diesel,199.9,2026-03-11
Maxol Service Station Douglas Road,Maxol,"Dunmahon, S Douglas Rd, Ballinlough",Cork,Rk,51.8813436,-8.444136499999999,Petrol,183.9,2026-03-11
Maxol Service Station Douglas Road,Maxol,"Dunmahon, S Douglas Rd, Ballinlough",Cork,Rk,51.8813436,-8.444136499999999,Diesel,201.9,2026-03-11
Rochestown Service Station (Murphy's),Circle K,Rochestown Rd,Rochestown,Rk,51.87707078299144,-8.395939597237629,Petrol,185.9,2026-03-11
Rochestown Service Station (Murphy's),Circle K,Rochestown Rd,Rochestown,Rk,51.87707078299144,-8.395939597237629,Diesel,206.9,2026-03-11
Inver Glounthaune,Inver,"L3004, Killahoura St, Killahora",Glounthaune,Rk,51.9110807,-8.3112699,Petrol,182.9,2026-03-11
Inver Glounthaune,Inver,"L3004, Killahoura St, Killahora",Glounthaune,Rk,51.9110807,-8.3112699,Diesel,196.9,2026-03-11
Circle K Macroom,Circle K,"R584, 12 Macroom Rd,Coolcour",Macroom,Rk,51.89132218869264,-8.937794577490564,Diesel,179.9,2026-03-09
Circle K Polefield,Circle K,Commons Road,Cork,Rk,51.919967799999995,-8.4826921,Petrol,182.9,2026-03-09
Circle K Polefield,Circle K,Commons Road,Cork,Rk,51.919967799999995,-8.4826921,Diesel,197.8,2026-03-09
Applegreen,Applegreen,"N Ring Rd, Ballyvolane",Cork,Rk,51.9147169,-8.4486475,Petrol,179.9,2026-03-09
Applegreen,Applegreen,"N Ring Rd, Ballyvolane",Cork,Rk,51.9147169,-8.4486475,Diesel,179.9,2026-03-09
Inver Mayfield,Inver,"Old Youghal Rd, Mayfield",Cork,Rk,51.91565991165828,-8.427173063053118,Petrol,182.9,2026-03-09
Inver Mayfield,Inver,"Old Youghal Rd, Mayfield",Cork,Rk,51.91565991165828,-8.427173063053118,Diesel,192.9,2026-03-09
Maxol Service Station Tivoli,Maxol,"N8, Lower Glanmire Rd",Lota More,Rk,51.90306098431387,-8.429618935926044,Petrol,181.9,2026-03-09
Maxol Service Station Tivoli,Maxol,"N8, Lower Glanmire Rd",Lota More,Rk,51.90306098431387,-8.429618935926044,Diesel,195.9,2026-03-09
Circle K Tivoli,Circle K,Tivoli,Cork,Rk,51.9031895,-8.4284455,Petrol,181.9,2026-03-09
Circle K Tivoli,Circle K,Tivoli,Cork,Rk,51.9031895,-8.4284455,Diesel,197.9,2026-03-09
Inver Macroom Junction,Inver,"R583, Gurteenroe Park, Gurteenroe",Macroom,Rk,51.90753261629837,-8.978349976423232,Diesel,1.8,2026-03-07
Certa 24/7,Certa,"L3004, Lee Tunnel, Kilcoolishal, Little Island",Glanmire,Rk,51.907298419115676,-8.363261087570464,Petrol,179.9,2026-03-07
Certa 24/7,Certa,"L3004, Lee Tunnel, Kilcoolishal, Little Island",Glanmire,Rk,51.907298419115676,-8.363261087570464,Diesel,200.9,2026-03-07
Circle K Midleton,Circle K,"Old Cork Rd, Oatencake",Midleton,Rk,51.914291,-8.1843412,Petrol,174.9,2026-03-05
Circle K Midleton,Circle K,"Old Cork Rd, Oatencake",Midleton,Rk,51.914291,-8.1843412,Diesel,179.9,2026-03-05
Newberry Service Station,Silverstream,"R619, Newberry, Kilvealaton East",Mallow,Rk,52.1230939,-8.6872389,Petrol,179.9,2026-03-04
Newberry Service Station,Silverstream,"R619, Newberry, Kilvealaton East",Mallow,Rk,52.1230939,-8.6872389,Diesel,180.9,2026-03-04
Fennelly's Premier Service Station,Texaco,"R907, Cork Rd, Knockgriffin",Midleton,Rk,51.9141841,-8.188280899999999,Petrol,175.9,2026-03-02
Fennelly's Premier Service Station,Texaco,"R907, Cork Rd, Knockgriffin",Midleton,Rk,51.9141841,-8.188280899999999,Diesel,172.9,2026-03-02
O'Reilly's Garage,Texaco,"N22, Carrigrohane Rd",Cork,Rk,51.8933944,-8.5112267,Diesel,174.9,2026-02-28
Spillane's Service Station,NA,"Ballinrea Rd, Ballinrea",Carrigaline,Rk,51.836681,-8.394848699999999,Petrol,177.9,2026-02-20
Spillane's Service Station,NA,"Ballinrea Rd, Ballinrea",Carrigaline,Rk,51.836681,-8.394848699999999,Diesel,176.9,2026-02-20
Murphy's Service Station,Circle K,"5 Vicars Rd, Togher",Cork,Rk,51.87930617742035,-8.487858122685083,Petrol,176.9,2026-02-10
Murphy's Service Station,Circle K,"5 Vicars Rd, Togher",Cork,Rk,51.87930617742035,-8.487858122685083,Diesel,176.9,2026-02-10
Maxol Service Station Pouladuff Road,Maxol,"Pouladuff Road, The Lough",Cork,Rk,51.887988299999996,-8.4826383,Petrol,174.9,2026-02-07
Certa,Certa,"R612, Kilnaglery",Carrigaline,Rk,51.812025899999995,-8.383685000000002,Diesel,173.9,2025-12-24
Brosnan’s Fuel,NA,"The House in Between, Ardmanagh Rd, Ardmanagh",Schull,Rk,51.527736,-9.546673,Petrol,172.9,2025-12-23
Brosnan’s Fuel,NA,"The House in Between, Ardmanagh Rd, Ardmanagh",Schull,Rk,51.527736,-9.546673,Diesel,168.9,2025-12-23
Top Oil McDonald's Oil,Top,"Unit 3 Kinsale Rd, Ballyphehane, Kinsale",Cork,Rk,51.8751394,-8.4689214,Diesel,169.9,2025-11-06
Brandon Co-op Retail Centre,Inver,"R586, Bridge St, Teadies Lower ",Enniskeane,Rk,51.73939061403598,-8.92576372841441,Diesel,167.9,2025-11-01
Hurleys Fuel Centre,Independent,"N71, The Pike, Lissavard",Clonakilty,Rk,51.60073590965732,-8.959687977967548,Petrol,171.9,2025-10-21
Hurleys Fuel Centre,Independent,"N71, The Pike, Lissavard",Clonakilty,Rk,51.60073590965732,-8.959687977967548,Diesel,166.9,2025-10-21
Applegreen,Applegreen,The Spa,Mallow,Rk,52.1357661,-8.640158,Petrol,181.9,2025-10-19
Applegreen,Applegreen,The Spa,Mallow,Rk,52.1357661,-8.640158,Diesel,176.9,2025-10-19
Maxol Service Station Wilton,Maxol,"Glasheen Rd, Wilton",Cork,Rk,51.883359299999995,-8.5048769,Petrol,172.9,2025-10-18
Maxol Service Station Wilton,Maxol,"Glasheen Rd, Wilton",Cork,Rk,51.883359299999995,-8.5048769,Diesel,168.9,2025-10-18
Inver Curraglass,Inver,"Curraglass West, Amber",Curraglass,Rk,52.093516,-8.0429733,Petrol,175.9,2025-10-13
Inver Curraglass,Inver,"Curraglass West, Amber",Curraglass,Rk,52.093516,-8.0429733,Diesel,169.9,2025-10-13
Circle K Express Lissarda,Circle K,Ballymichael,Lissarda,Rk,51.851682,-8.865675999999999,Petrol,173.9,2025-10-12
Lee Garage,Independent,25 Model Farm Rd,Glasheen,Rk,51.8883959,-8.5116569,Petrol,171.9,2025-10-07
Lee Garage,Independent,25 Model Farm Rd,Glasheen,Rk,51.8883959,-8.5116569,Diesel,165.9,2025-10-07
Barrys Petrol Station,Top,"R618, Inniscarra Rd",Great Island,Rk,51.892993764011436,-8.622962669818122,Petrol,171.9,2025-10-06
Smart Pump,Silverstream,"N72, Mallow Rd, Grange East, ",Fermoy,Rk,52.14165832011946,-8.281441119692914,Petrol,168.9,2025-09-29
Smart Pump,Silverstream,"N72, Mallow Rd, Grange East, ",Fermoy,Rk,52.14165832011946,-8.281441119692914,Diesel,162.9,2025-09-29
Circle K Express Inishannon,Circle K Express,"N71, 3 Main St, Laherfineen",Innishannon,Rk,51.76551,-8.660701999999999,Petrol,172.9,2025-09-20
Circle K Express Inishannon,Circle K Express,"N71, 3 Main St, Laherfineen",Innishannon,Rk,51.76551,-8.660701999999999,Diesel,169.9,2025-09-20
Billy Cahalane Costcutter/ Circle K Service Station,Circle K,"Main, Cork Rd, Ballylangley",Bandon,Rk,51.7526126,-8.716779899999999,Petrol,172.9,2025-09-20
Billy Cahalane Costcutter/ Circle K Service Station,Circle K,"Main, Cork Rd, Ballylangley",Bandon,Rk,51.7526126,-8.716779899999999,Diesel,169.9,2025-09-20
Kilbrogan Service Station,NA,"Macroom Rd, Kilbrogan, Bandon",Cloghmacsimon,Rk,51.758036999999995,-8.729413599999999,Petrol,172.9,2025-09-20
Kilbrogan Service Station,NA,"Macroom Rd, Kilbrogan, Bandon",Cloghmacsimon,Rk,51.758036999999995,-8.729413599999999,Diesel,166.9,2025-09-20
Applegreen,Applegreen,Upper Cork Hill,Youghal,Rk,51.9565181,-7.859316,Petrol,167.8,2025-09-17
Applegreen,Applegreen,Upper Cork Hill,Youghal,Rk,51.9565181,-7.859316,Diesel,164.8,2025-09-17
Texaco,Texaco,"Glasslyn Rd, Cloghmacsimon",Bandon,Rk,51.7468142,-8.725551099999999,Petrol,175.9,2025-09-06
Texaco,Texaco,"Glasslyn Rd, Cloghmacsimon",Bandon,Rk,51.7468142,-8.725551099999999,Diesel,168.9,2025-09-06
Circle K Eastgate,Circle K,Main St,Ballincollig,Rk,51.88819517388808,-8.58564470932572,Petrol,172.9,2025-08-24
Circle K Eastgate,Circle K,Main St,Ballincollig,Rk,51.88819517388808,-8.58564470932572,Diesel,170.9,2025-08-24
East Cork Motors Limited,NA,"The Pier Service Station, Aghada",Lower,Rk,51.844196499999995,-8.2101426,Petrol,189.9,2025-08-16
East Cork Motors Limited,NA,"The Pier Service Station, Aghada",Lower,Rk,51.844196499999995,-8.2101426,Diesel,182.9,2025-08-16
Top Oil Youghal Service Station,Top,"R634, Greencloyne",Youghal,Rk,51.9624197,-7.8606789,Petrol,165.9,2025-08-11
Top Oil Youghal Service Station,Top,"R634, Greencloyne",Youghal,Rk,51.9624197,-7.8606789,Diesel,161.9,2025-08-11
Inver Racecourse Junction,Inver,"N72, Navigation Rd, Firville West",Mallow,Rk,52.13371479398194,-8.695197082707267,Petrol,169.9,2025-05-16
Inver Racecourse Junction,Inver,"N72, Navigation Rd, Firville West",Mallow,Rk,52.13371479398194,-8.695197082707267,Diesel,164.9,2025-05-16
Lisavaird Co Op,Swift,Tullyneasky West,Clonakilty,Rk,51.60268033007674,-8.973388892746414,Petrol,166.9,2025-05-09
Lisavaird Co Op,Swift,Tullyneasky West,Clonakilty,Rk,51.60268033007674,-8.973388892746414,Diesel,159.9,2025-05-09
Amber Youghal,Amber,"Upper Strand, Claycastle",Youghal,Rk,51.9405429,-7.8526368,Petrol,164.9,2025-05-20
Amber Youghal,Amber,"Upper Strand, Claycastle",Youghal,Rk,51.9405429,-7.8526368,Diesel,162.9,2025-05-20
Roundhill Service Station,Swift,"Clonakilty Rd, Roundhill",Bandon,Rk,51.7352712,-8.7530963,Petrol,173.9,2024-09-09
Roundhill Service Station,Swift,"Clonakilty Rd, Roundhill",Bandon,Rk,51.7352712,-8.7530963,Diesel,163.9,2024-09-09
Downeys Daybreak,Circle K,Derrymihin West,Castletownbere,Rk,51.653004499999994,-9.8821656,Diesel,172.9,2024-07-31
D Oil,Swift,Underhill,Dunmanway,Rk,51.716703499999994,-9.111984099999999,Petrol,177.9,2024-07-17
D Oil,Swift,Underhill,Dunmanway,Rk,51.716703499999994,-9.111984099999999,Diesel,170.9,2024-07-17
Connelly's Service Station,Applegreen,"Cork Rd, Gortnaclohy",Skibbereen,Rk,51.5574678,-9.2550477,Petrol,181.8,2024-08-09
Connelly's Service Station,Applegreen,"Cork Rd, Gortnaclohy",Skibbereen,Rk,51.5574678,-9.2550477,Diesel,171.8,2024-08-09
Hegartys Circle K Expresss,Circle K,"Market St, Gortnaclohy",Skibbereen,Rk,51.547208499999996,-9.263907,Petrol,182.9,2024-07-16
Hegartys Circle K Expresss,Circle K,"Market St, Gortnaclohy",Skibbereen,Rk,51.547208499999996,-9.263907,Diesel,172.9,2024-07-16
Circle K,Circle K,32,Dunmanway,Rk,51.723320799999996,-9.108249599999999,Petrol,168.9,2025-06-04
Circle K,Circle K,32,Dunmanway,Rk,51.723320799999996,-9.108249599999999,Diesel,165.9,2025-06-04
Hennessy’s Daybreak,Top,Ballynoe,White’s Cross,Rk,51.93793130939062,-8.451104421637694,Petrol,168.7,2025-05-20
Hennessy’s Daybreak,Top,Ballynoe,White’s Cross,Rk,51.93793130939062,-8.451104421637694,Diesel,163.7,2025-05-20
Circle K Bantry,Circle K,"N71, Newtown",Bantry,Rk,51.690985,-9.442370799999999,Petrol,168.9,2025-06-03
Circle K Bantry,Circle K,"N71, Newtown",Bantry,Rk,51.690985,-9.442370799999999,Diesel,167.9,2025-06-03
Amber Leemount Cross,Amber,"R579, Leemount Place",Coolymurraghue,Rk,51.89884781533735,-8.573310026676154,Petrol,169.9,2025-05-18
Amber Leemount Cross,Amber,"R579, Leemount Place",Coolymurraghue,Rk,51.89884781533735,-8.573310026676154,Diesel,166.9,2025-05-18
Bantry Express Shop,NA,"Seafield, Co. Cork, Ireland",Bantry,Rk,51.6798084,-9.46006,Petrol,168.9,2025-06-03
Bantry Express Shop,NA,"Seafield, Co. Cork, Ireland",Bantry,Rk,51.6798084,-9.46006,Diesel,167.9,2025-06-03
Applegreen,Applegreen,"Cappeen West, Moneygaff West, Cork",Cappeen,Rk,51.795263299999995,-8.9924898,Petrol,170.8,2025-04-27
Applegreen,Applegreen,"Cappeen West, Moneygaff West, Cork",Cappeen,Rk,51.795263299999995,-8.9924898,Diesel,166.8,2025-04-27
Applegreen Togher,Applegreen,"Togher Rd, Lehenagh Beg",Cork,Rk,51.8741487,-8.4955762,Petrol,181.9,2025-02-04
Applegreen Togher,Applegreen,"Togher Rd, Lehenagh Beg",Cork,Rk,51.8741487,-8.4955762,Diesel,179.9,2025-02-04
Westlink Service Station,NA,"Lower Pouladuff Rd, Ballyphehane, CORK",Cork,Rk,51.8731789,-8.4862022,Petrol,186.9,2025-02-01
Westlink Service Station,NA,"Lower Pouladuff Rd, Ballyphehane, CORK",Cork,Rk,51.8731789,-8.4862022,Diesel,186.9,2025-02-01
Maxol Service Station Donnybrook,Maxol,"Donnybrook Hill, Douglas",Cork,Rk,51.8687699,-8.4390678,Diesel,181.9,2025-01-23
Top Oil Carrigaline Service Station,Top,"Kilmoney Heights, Kilmoney",Carrigaline,Rk,51.811697599999995,-8.3944678,Diesel,179.9,2025-01-23
The Village Store,NA,"Moneygaff West, Co. Cork, Ireland",Cappeen,Rk,51.795151,-8.9925832,Petrol,177.8,2025-01-19
The Village Store,NA,"Moneygaff West, Co. Cork, Ireland",Cappeen,Rk,51.795151,-8.9925832,Diesel,175.8,2025-01-19
Centra Kildorrery,NA,Farrahy Rd,Kildorrery,Rk,52.2454804,-8.429462,Petrol,176.9,2024-12-26
Centra Kildorrery,NA,Farrahy Rd,Kildorrery,Rk,52.2454804,-8.429462,Diesel,171.9,2024-12-26
Circle K Ballincollig,Circle K,"43 Pine Walk, Ballincollig",Cork,Rk,51.8878359,-8.5942603,Petrol,177.5,2024-12-18
Circle K Ballincollig,Circle K,"43 Pine Walk, Ballincollig",Cork,Rk,51.8878359,-8.5942603,Diesel,172.9,2024-12-18
O’Riordan’s Service Station,Amber,"R579, 27 Bluepool Lower",Kanturk,Rk,52.17289465065082,-8.903116263267862,Petrol,171.9,2025-06-03
O’Riordan’s Service Station,Amber,"R579, 27 Bluepool Lower",Kanturk,Rk,52.17289465065082,-8.903116263267862,Diesel,168.9,2025-06-03
Aspel’s Service Station,Top,"R576, O'Brien St, Newmarket Rd",Kanturk,Rk,52.17871437299317,-8.90775045401594,Petrol,173.9,2025-06-03
Aspel’s Service Station,Top,"R576, O'Brien St, Newmarket Rd",Kanturk,Rk,52.17871437299317,-8.90775045401594,Diesel,169.9,2025-06-03
Maxol,Maxol,"Clonakilty Rd, Roundhill",Bandon,Rk,51.7349423,-8.7567954,Petrol,175.9,2024-09-09
Maxol,Maxol,"Clonakilty Rd, Roundhill",Bandon,Rk,51.7349423,-8.7567954,Diesel,164.9,2024-09-09
Christy Lucey Service Station Ltd,NA,"Ballymakeery, Flats",Macroom,Rk,51.938317299999994,-9.1540388,Petrol,168.9,2025-06-01
Inver Charleville,Inver,"N20, Rathgoggan South",Charleville,Rk,52.347084806233426,-8.675195798823239,Petrol,167.9,2025-06-04
Inver Charleville,Inver,"N20, Rathgoggan South",Charleville,Rk,52.347084806233426,-8.675195798823239,Diesel,163.9,2025-06-04
Johnsbridge Service station,Emo,"R579, Bawnmore South",Johnsbridge,Rk,52.236795992060365,-8.887425697688599,Petrol,172.9,2025-06-04
Johnsbridge Service station,Emo,"R579, Bawnmore South",Johnsbridge,Rk,52.236795992060365,-8.887425697688599,Diesel,167.9,2025-06-04
Hannon’s Service Station,Maxol,"Church St, Scarteen Lower",Newmarket,Rk,52.21472823520347,-8.996421400812665,Petrol,172.9,2025-06-08
Hannon’s Service Station,Maxol,"Church St, Scarteen Lower",Newmarket,Rk,52.21472823520347,-8.996421400812665,Diesel,164.9,2025-06-08
Top Oil Rathduff Truck Stop,Top,"N20, Rathduff",Grenagh,Rk,52.01853890309445,-8.58979969695227,Diesel,164.9,2025-06-09
"Maxol Service Station, Boherbue Co-op",Maxol,"Mallow, Co. Cork, Ireland",Duke,Rk,52.159276299999995,-9.0722747,Petrol,182.9,2024-05-24
"Maxol Service Station, Boherbue Co-op",Maxol,"Mallow, Co. Cork, Ireland",Duke,Rk,52.159276299999995,-9.0722747,Diesel,174.9,2024-05-24
Top Oil Stranorlar Service Station,Top,Johnsons Corner,Stranorlar,Donegal,54.805049999999994,-7.7679574,Diesel,215.9,2026-03-20
Reid's Garage,NA,Johnston's Corner,Stranorlar,Donegal,54.805049,-7.767948999999999,Diesel,215.9,2026-03-20
Top Oil Sweeneys Spar Express,Top,Ballyraine,Letterkenny,Donegal,54.953373799999994,-7.7094159,Petrol,189.9,2026-03-20
Top Oil Sweeneys Spar Express,Top,Ballyraine,Letterkenny,Donegal,54.953373799999994,-7.7094159,Diesel,209.9,2026-03-20
G & S Filling Station,NA,"Church Rd, Churchland Quarters(Carrowtemple Moneyshandoney And Carrick)",Carndonagh,Donegal,55.2508415,-7.2657339,Petrol,189.9,2026-03-20
G & S Filling Station,NA,"Church Rd, Churchland Quarters(Carrowtemple Moneyshandoney And Carrick)",Carndonagh,Donegal,55.2508415,-7.2657339,Diesel,209.9,2026-03-20
Circle K,Circle K,"Millbrae, Ballylosky",Carndonagh,Donegal,55.2486743,-7.2640126,Petrol,199.9,2026-03-20
Circle K,Circle K,"Millbrae, Ballylosky",Carndonagh,Donegal,55.2486743,-7.2640126,Diesel,213.9,2026-03-20
Circle K Tobin's,Circle K,Port Rd,Letterkenny,Donegal,54.952259,-7.7249155,Diesel,209.9,2026-03-19
Circle K N15,Circle K,"Ballybofey, Co. Donegal, Ireland",Ballybofey,Donegal,54.7951723,-7.7945267000000005,Diesel,208.9,2026-03-19
Gills Service Station,Circle K,Pettigo Rd,Aghafoy,Donegal,54.5436286,-7.855638199999999,Petrol,196.9,2026-03-19
Gills Service Station,Circle K,Pettigo Rd,Aghafoy,Donegal,54.5436286,-7.855638199999999,Diesel,215.9,2026-03-19
Applegreen Lifford,Applegreen,Letterkenny Rd,Lifford,Donegal,54.836491699999996,-7.4884754,Petrol,189.9,2026-03-19
Applegreen Lifford,Applegreen,Letterkenny Rd,Lifford,Donegal,54.836491699999996,-7.4884754,Diesel,212.9,2026-03-19
Whoriskeys Heating Oils,NA,"Bridge End Or Drummonaghan, Co. Donegal, Ireland",Rathmelton,Donegal,55.0369062,-7.6539514,Petrol,199.9,2026-03-19
Whoriskeys Heating Oils,NA,"Bridge End Or Drummonaghan, Co. Donegal, Ireland",Rathmelton,Donegal,55.0369062,-7.6539514,Diesel,215.9,2026-03-19
Kernan's Spar Express Moorefield Ramelton,NA,"Letterkenny Rd, Aghangaddy Glebe",Ramelton,Donegal,55.019701999999995,-7.652455,Petrol,199.9,2026-03-19
Kernan's Spar Express Moorefield Ramelton,NA,"Letterkenny Rd, Aghangaddy Glebe",Ramelton,Donegal,55.019701999999995,-7.652455,Diesel,215.9,2026-03-19
Certa 24/7,Certa,"R940 Ramelton Rd, Ballyraine",Letterkenny,Donegal,54.9561098,-7.7081010999999995,Petrol,193.9,2026-03-19
Certa 24/7,Certa,"R940 Ramelton Rd, Ballyraine",Letterkenny,Donegal,54.9561098,-7.7081010999999995,Diesel,207.9,2026-03-19
Blaney Stores - Applegreen,Applegreen,"8 R267, Legmuckduff, Co. Donegal",The,Donegal,55.075776700000006,-7.679229299999999,Petrol,188.8,2026-03-19
Blaney Stores - Applegreen,Applegreen,"8 R267, Legmuckduff, Co. Donegal",The,Donegal,55.075776700000006,-7.679229299999999,Diesel,209.8,2026-03-19
Dalys - An Siopa Beag,Circle K,"N15, Townparks, Castlefinn Road",Lifford,Donegal,54.8290973,-7.485022099999999,Petrol,186.9,2026-03-18
Dalys - An Siopa Beag,Circle K,"N15, Townparks, Castlefinn Road",Lifford,Donegal,54.8290973,-7.485022099999999,Diesel,203.9,2026-03-18
Circle K / Maple Castlefinn,Circle K,Sandy Row,Castlefinn,Donegal,54.802665,-7.5919749,Petrol,196.9,2026-03-18
Circle K / Maple Castlefinn,Circle K,Sandy Row,Castlefinn,Donegal,54.802665,-7.5919749,Diesel,209.9,2026-03-18
Go 24hr Express,Go,"N15, Liscooley",Castlefinn,Donegal,54.80132,-7.641820000000001,Petrol,189.9,2026-03-18
Go 24hr Express,Go,"N15, Liscooley",Castlefinn,Donegal,54.80132,-7.641820000000001,Diesel,209.9,2026-03-18
Top Oil Drumkeen,Top,Treantaboy,Drumkeen,Donegal,54.889920999999994,-7.733781899999999,Diesel,205.9,2026-03-17
Kee's Circle K Express Laghey,Circle K,Oughtnadrin,Laghey,Donegal,54.6153054,-8.0898532,Petrol,189.9,2026-03-16
Kee's Circle K Express Laghey,Circle K,Oughtnadrin,Laghey,Donegal,54.6153054,-8.0898532,Diesel,209.9,2026-03-16
The Northern Garage,Emo,"R267, Clar Road, Drumlonagher",Donegal,Donegal,54.656032499999995,-8.096292499999999,Petrol,188.9,2026-03-16
The Northern Garage,Emo,"R267, Clar Road, Drumlonagher",Donegal,Donegal,54.656032499999995,-8.096292499999999,Diesel,209.9,2026-03-16
Circle K,Circle K,Drumcliff,Donegal,Donegal,54.656439899999995,-8.1183255,Petrol,189.9,2026-03-16
Circle K,Circle K,Drumcliff,Donegal,Donegal,54.656439899999995,-8.1183255,Diesel,209.9,2026-03-16
Koleys Service Station,Top,"N56, Drumlonagher",Donegal,Donegal,54.6586515,-8.0893952,Petrol,191.9,2026-03-13
Koleys Service Station,Top,"N56, Drumlonagher",Donegal,Donegal,54.6586515,-8.0893952,Diesel,211.9,2026-03-13
Falcarragh Service Station,Circle K Express,"Ballyconnell, Co. Donegal, Ireland",Falcarragh,Donegal,55.13711,-8.09931,Petrol,200.9,2026-03-16
Falcarragh Service Station,Circle K Express,"Ballyconnell, Co. Donegal, Ireland",Falcarragh,Donegal,55.13711,-8.09931,Diesel,217.9,2026-03-16
Co-Op Fuel Londis (McKennas),Co-op,"N/a, Drung, Co. Donegal",Mountargus,Donegal,55.1503221,-7.1560111,Diesel,204.9,2026-03-14
Donaghys Filling Station,Independent,Main St,Muff,Donegal,55.07091027557351,-7.2685552910962485,Diesel,204.9,2026-03-14
Circle K R238,Circle K,Main St,Muff,Donegal,55.069476400000006,-7.268479699999999,Petrol,186.9,2026-03-14
Circle K R238,Circle K,Main St,Muff,Donegal,55.069476400000006,-7.268479699999999,Diesel,196.9,2026-03-14
McGonigle's Maxol Spar,Maxol,Main St,Muff,Donegal,55.0670995,-7.269614,Petrol,195.9,2026-03-14
McGonigle's Maxol Spar,Maxol,Main St,Muff,Donegal,55.0670995,-7.269614,Diesel,205.9,2026-03-14
Dry Arch Complex,Texaco,"N56, Bunnagee",Letterkenny,Donegal,54.9438732,-7.696896199999999,Petrol,189.9,2026-03-14
Dry Arch Complex,Texaco,"N56, Bunnagee",Letterkenny,Donegal,54.9438732,-7.696896199999999,Diesel,208.9,2026-03-14
Applegreen Letterkenny,Applegreen,"Derry Road, Bunnagee",Letterkenny,Donegal,54.944366099999996,-7.700288199999998,Petrol,183.8,2026-03-14
Applegreen Letterkenny,Applegreen,"Derry Road, Bunnagee",Letterkenny,Donegal,54.944366099999996,-7.700288199999998,Diesel,199.8,2026-03-14
Circle K,Circle K,"Kilmacrennan Road, Mountain Top",Letterkenny,Donegal,54.9771791,-7.7255479,Diesel,196.9,2026-03-14
O'Donnell's Go,Go,"N56, Ellistrin Little, Ellistrin",Letterkenny,Donegal,54.9953109,-7.729936299999999,Petrol,189.9,2026-03-14
O'Donnell's Go,Go,"N56, Ellistrin Little, Ellistrin",Letterkenny,Donegal,54.9953109,-7.729936299999999,Diesel,205.9,2026-03-14
Sweeney's Your Stop,Top,"Fawans, Termon, Co. Donegal",Letterkenny,Donegal,55.0561836,-7.828756599999999,Petrol,191.9,2026-03-14
Sweeney's Your Stop,Top,"Fawans, Termon, Co. Donegal",Letterkenny,Donegal,55.0561836,-7.828756599999999,Diesel,207.9,2026-03-14
"Maxol Service Station, Moore's",Maxol,"Kill, Dunfanaghy, Co. Donegal",Kilbroney,Donegal,55.1825188,-7.9657592,Petrol,192.9,2026-03-14
"Maxol Service Station, Moore's",Maxol,"Kill, Dunfanaghy, Co. Donegal",Kilbroney,Donegal,55.1825188,-7.9657592,Diesel,206.9,2026-03-14
Holmes Service Station,Texaco,"N56, Killybegs Road, Drimark",Donegal,Donegal,54.6524863,-8.1424282,Petrol,189.9,2026-03-13
Holmes Service Station,Texaco,"N56, Killybegs Road, Drimark",Donegal,Donegal,54.6524863,-8.1424282,Diesel,209.9,2026-03-13
Callaghan's Service Station (Gala),Go,Moness,Burt,Donegal,55.0320548,-7.454062,Petrol,189.9,2026-03-12
Callaghan's Service Station (Gala),Go,Moness,Burt,Donegal,55.0320548,-7.454062,Diesel,199.9,2026-03-12
Twin Town Oils Ltd,NA,"TWIN TOWN OILS LTD, Cappry",Ballybofey,Donegal,54.7885411,-7.8230388,Diesel,199.9,2026-03-12
McErlean Fuels Ltd,Independent,Main St,Muff,Donegal,55.0718065,-7.2690428,Diesel,189.5,2026-03-07
TJ Hughes Fuels,Circle K,"N3, Cloghore, Ballyshannon",Belleek,Donegal,54.477102599999995,-8.096791699999999,Petrol,183.9,2026-03-06
TJ Hughes Fuels,Circle K,"N3, Cloghore, Ballyshannon",Belleek,Donegal,54.477102599999995,-8.096791699999999,Diesel,193.9,2026-03-06
Stinson Fuels,NA,Ballymagrorty Scotch,Ballymagroarty,Donegal,54.557590299999994,-8.1316104,Diesel,205.9,2026-03-05
Circle K Express Carrigart,Circle K,"R245, Milford road",Carrickart,Donegal,55.17755,-7.793277,Petrol,189.9,2026-03-04
Circle K Express Carrigart,Circle K,"R245, Milford road",Carrickart,Donegal,55.17755,-7.793277,Diesel,189.9,2026-03-04
Top Oil Newtowncunningham Kernan's Service Station,Top,Derry Road,Newtown,Donegal,54.998218699999995,-7.5149878999999995,Petrol,173.9,2026-02-10
Top Oil Newtowncunningham Kernan's Service Station,Top,Derry Road,Newtown,Donegal,54.998218699999995,-7.5149878999999995,Diesel,172.9,2026-02-10
Applegreen Cill an Oir,Applegreen,"Cill an Óir, Complex",Letterkenny,Donegal,54.969208099999996,-7.761379499999999,Petrol,178.9,2026-02-03
Applegreen Cill an Oir,Applegreen,"Cill an Óir, Complex",Letterkenny,Donegal,54.969208099999996,-7.761379499999999,Diesel,178.8,2026-02-03
Applegreen Moville,Applegreen,"Main St, Gulladoo",Moville,Donegal,55.1926802,-7.0464366,Petrol,172.8,2026-01-29
Applegreen Moville,Applegreen,"Main St, Gulladoo",Moville,Donegal,55.1926802,-7.0464366,Diesel,171.8,2026-01-29
Spar Bridgend,Texaco,"N13, Buncrana Rd",Bridgend,Donegal,55.0393463,-7.376899099999999,Petrol,154.9,2025-11-20
Spar Bridgend,Texaco,"N13, Buncrana Rd",Bridgend,Donegal,55.0393463,-7.376899099999999,Diesel,154.9,2025-11-20
Rooneys Service Station,Circle K,"R263, Donegal Rd",Killybegs,Donegal,54.644472199999996,-8.4323502,Petrol,179.9,2025-11-13
Rooneys Service Station,Circle K,"R263, Donegal Rd",Killybegs,Donegal,54.644472199999996,-8.4323502,Diesel,179.9,2025-11-13
Certa Fuel Depot,Certa,Port Rd,Letterkenny,Donegal,54.95296333788738,-7.727837652714271,Diesel,171.9,2025-11-13
Breslin's Service Station,Top,"R263, Donegal Rd",Killybegs,Donegal,54.6470055,-8.4307158,Petrol,178.9,2025-11-06
Breslin's Service Station,Top,"R263, Donegal Rd",Killybegs,Donegal,54.6470055,-8.4307158,Diesel,175.9,2025-11-06
Top Oil Barrys of Bruckless Service Station,Top,N56,Bruckless,Donegal,54.639725,-8.3871811,Petrol,179.9,2025-11-06
Top Oil Barrys of Bruckless Service Station,Top,N56,Bruckless,Donegal,54.639725,-8.3871811,Diesel,177.9,2025-11-06
Go 24 Express,Go,"R237, Kildrum Upper",Killea,Donegal,54.97857628513074,-7.41193281017604,Petrol,152.1,2025-10-29
Go 24 Express,Go,"R237, Kildrum Upper",Killea,Donegal,54.97857628513074,-7.41193281017604,Diesel,152.1,2025-10-29
Top Oil Ramelton Kernan's Service Station,Top,"Rough Park, Aghangaddy Glebe",Ramelton,Donegal,55.019766499999996,-7.652392499999999,Petrol,175.9,2025-10-15
Top Oil Ramelton Kernan's Service Station,Top,"Rough Park, Aghangaddy Glebe",Ramelton,Donegal,55.019766499999996,-7.652392499999999,Diesel,172.9,2025-10-15
Dalys Gala,Circle K,Letterkenny Rd,Lifford,Donegal,54.833638699999995,-7.487490799999999,Diesel,159.9,2025-07-01
Maloney's Service Station,Texaco,"N56, Main St, Killybegs Rd",Ardara,Donegal,54.7600899,-8.4190373,Petrol,176.9,2025-04-11
Maloney's Service Station,Texaco,"N56, Main St, Killybegs Rd",Ardara,Donegal,54.7600899,-8.4190373,Diesel,173.9,2025-04-11
Moore’s Service Station,Circle K,N56,Loughanure,Donegal,54.9984797,-8.2894952,Petrol,177.9,2025-01-19
Moore’s Service Station,Circle K,N56,Loughanure,Donegal,54.9984797,-8.2894952,Diesel,177.9,2025-01-19
Go Ballyshannon,Go,"R267, Assaroe Rd, Carrickboy",Ballyshannon,Donegal,54.500037199999994,-8.1918008,Petrol,179.9,2025-02-18
Darnell's Ardara Filling Station,Applegreen,Portnoo Road,Ardara,Donegal,54.765567,-8.410084399999999,Petrol,179.9,2025-02-20
Darnell's Ardara Filling Station,Applegreen,Portnoo Road,Ardara,Donegal,54.765567,-8.410084399999999,Diesel,177.9,2025-02-20
Ward's Of Inver,Independent,"N56, Mullanboys",Mountcharles,Donegal,54.6526049,-8.2559532,Petrol,182.9,2024-08-27
Ward's Of Inver,Independent,"N56, Mullanboys",Mountcharles,Donegal,54.6526049,-8.2559532,Diesel,172.9,2024-08-27
Clerkin's Service Station,Emo,Madavagh,Lettermacaward,Donegal,54.856151999999994,-8.3058099,Petrol,179.9,2024-07-25
Clerkin's Service Station,Emo,Madavagh,Lettermacaward,Donegal,54.856151999999994,-8.3058099,Diesel,171.9,2024-07-25
Glencar Service Station - Spar Express,Texaco,"Circular Rd, Ballyboe Glencar",Letterkenny,Donegal,54.957285,-7.744445999999999,Petrol,179.9,2024-06-03
Glencar Service Station - Spar Express,Texaco,"Circular Rd, Ballyboe Glencar",Letterkenny,Donegal,54.957285,-7.744445999999999,Diesel,169.9,2024-06-03
Roarty's Garage,Top,Money More,Dunlewey,Donegal,55.030424499999995,-8.141837599999999,Petrol,178.9,2024-07-15
Roarty's Garage,Top,Money More,Dunlewey,Donegal,55.030424499999995,-8.141837599999999,Diesel,169.9,2024-07-15
O'Donnell Fuels,Go,N56,Crolly,Donegal,55.026360999999994,-8.2609436,Petrol,175.9,2025-03-17
O'Donnell Fuels,Go,N56,Crolly,Donegal,55.026360999999994,-8.2609436,Diesel,174.9,2025-03-17
Bradleys Service Station,Circle K,"The Gort, Fahan, Co. Donegal",Gort,Donegal,55.077869799999995,-7.4536280999999995,Diesel,169.9,2024-06-23
"Maxol Service Station, Doherty's",Maxol,"Drung, Drung",Quigley's,Donegal,55.1503539,-7.156043899999999,Diesel,174.9,2025-02-20
Grove Service Station,NA,"Bunnamayne, Bridgend, Co. Donegal",Dumberry,Donegal,55.0400913,-7.3764216,Petrol,179.9,2025-01-28
Grove Service Station,NA,"Bunnamayne, Bridgend, Co. Donegal",Dumberry,Donegal,55.0400913,-7.3764216,Diesel,176.9,2025-01-28
Top Oil Bundoran Service Station,Top,"Main St, Drumacrin",Bundoran,Donegal,54.482372,-8.2689024,Petrol,181.9,2025-01-28
Top Oil Bundoran Service Station,Top,"Main St, Drumacrin",Bundoran,Donegal,54.482372,-8.2689024,Diesel,179.9,2025-01-28
Texaco R238,Texaco,Main St,Muff,Donegal,55.06558108854878,-7.270117388613045,Petrol,175.8,2024-05-22
Texaco R238,Texaco,Main St,Muff,Donegal,55.06558108854878,-7.270117388613045,Diesel,160.9,2024-05-22
Emo Mill Road,Emo,"Mill Rd, Meenmore",Dungloe,Donegal,54.9515536,-8.3649006,Petrol,179.9,2024-08-03
Emo Mill Road,Emo,"Mill Rd, Meenmore",Dungloe,Donegal,54.9515536,-8.3649006,Diesel,171.9,2024-08-03
Top Oil Sharkey's Service Station,Top,"Gweedore Road, Meenmore",Dungloe,Donegal,54.9556809,-8.3592013,Petrol,179.9,2024-08-10
Top Oil Sharkey's Service Station,Top,"Gweedore Road, Meenmore",Dungloe,Donegal,54.9556809,-8.3592013,Diesel,171.9,2024-08-10
Circle K Express Gweedore,Circle K,"R257, Magheragallan, Cotteen",Derrybeg,Donegal,55.07743529848517,-8.29094322657113,Petrol,186.9,2024-08-14
Circle K Express Gweedore,Circle K,"R257, Magheragallan, Cotteen",Derrybeg,Donegal,55.07743529848517,-8.29094322657113,Diesel,176.9,2024-08-14
Maxol N13,Maxol,"Bohullion Lower, Co. Donegal, Ireland",Castlecooley,Donegal,55.017845099999995,-7.4788879,Petrol,173.9,2024-12-10
Top Oil Sharkey's Service Station,Top,"Gweedore Road, Meenmore",Dungloe,Donegal,54.9556809,-8.3592013,Petrol,179.9,2024-08-10
Top Oil Sharkey's Service Station,Top,"Gweedore Road, Meenmore",Dungloe,Donegal,54.9556809,-8.3592013,Diesel,171.9,2024-08-10
Emo Mill Road,Emo,"Mill Rd, Meenmore",Dungloe,Donegal,54.9515536,-8.3649006,Petrol,179.9,2024-08-03
Emo Mill Road,Emo,"Mill Rd, Meenmore",Dungloe,Donegal,54.9515536,-8.3649006,Diesel,171.9,2024-08-03
Donegal Oil,NA,"Roshin Acres, Co. Donegal, Ireland",Burtonport,Donegal,54.9837825,-8.4265851,Petrol,179.9,2024-08-02
Donegal Oil,NA,"Roshin Acres, Co. Donegal, Ireland",Burtonport,Donegal,54.9837825,-8.4265851,Diesel,171.9,2024-08-02
Emo Fuel Card McDevitt Oil,Emo,"Annagry, Annagary, Letterkenny",Ardmore,Donegal,55.0213226,-8.3220876,Petrol,177.9,2024-08-01
Emo Fuel Card McDevitt Oil,Emo,"Annagry, Annagary, Letterkenny",Ardmore,Donegal,55.0213226,-8.3220876,Diesel,171.9,2024-08-01
Applegreen,Applegreen,"Ballyederowen, Sligo, Co. Donegal",Burnfoot,Donegal,55.0573364,-7.4043984,Petrol,177.8,2024-08-01
Applegreen,Applegreen,"Ballyederowen, Sligo, Co. Donegal",Burnfoot,Donegal,55.0573364,-7.4043984,Diesel,167.8,2024-08-01
Circle K,Circle K,Glencrow,Moville,Donegal,55.1883808,-7.045460299999999,Diesel,158.9,2024-06-20
Circle K Farrens,Circle K,"Railway Rd, Ballymacarry Lower",Buncrana,Donegal,55.1280487,-7.4569187999999995,Petrol,179.9,2024-06-17
Circle K Farrens,Circle K,"Railway Rd, Ballymacarry Lower",Buncrana,Donegal,55.1280487,-7.4569187999999995,Diesel,169.9,2024-06-17
Applegreen Buncrana,Applegreen,"R238, Luddan",Buncrana,Donegal,55.1154052,-7.460693799999999,Petrol,178.8,2024-05-30
Applegreen Buncrana,Applegreen,"R238, Luddan",Buncrana,Donegal,55.1154052,-7.460693799999999,Diesel,168.8,2024-05-30
Maxol Bridgend/ Rafferty's Ice Cream,Maxol,"Buncranna Road Bunnamayne Bridgend, Bunnamayne, Co. Donegal",Dumberry,Donegal,55.0407468,-7.3781734000000005,Diesel,172.8,2024-05-21
Applegreen,Applegreen,"North St, Townparks",Swords,Dublin,53.4621329,-6.219169399999999,Petrol,199.9,2026-03-21
Applegreen,Applegreen,Baldrumman,Lusk,Dublin,53.537162900000006,-6.215045600000001,Petrol,199.9,2026-03-21
Applegreen Southbound.,Applegreen,"M1 Lusk Southbound, M1",Lusk,Dublin,53.540663099999996,-6.2100811,Petrol,199.8,2026-03-20
Applegreen Southbound.,Applegreen,"M1 Lusk Southbound, M1",Lusk,Dublin,53.540663099999996,-6.2100811,Diesel,224.8,2026-03-20
Maxol Service Station Lucan Road,Maxol,"Lucan Rd, Lucan And Pettycanon",Dublin,Dublin,53.355108699999995,-6.4597979,Petrol,199.9,2026-03-20
Maxol Service Station Lucan Road,Maxol,"Lucan Rd, Lucan And Pettycanon",Dublin,Dublin,53.355108699999995,-6.4597979,Diesel,223.9,2026-03-20
Maxol Service Station Adamstown,Maxol,"R120, Newcastle Rd, Adamstown ",Dublin,Dublin,53.3323705055233,-6.455852309748849,Petrol,199.9,2026-03-20
Grange Castle Service Station,Circle K,"R134, New Nangor Road, Clondalkin",Dublin,Dublin,53.31840493567401,-6.437689034292305,Petrol,199.9,2026-03-20
Grange Castle Service Station,Circle K,"R134, New Nangor Road, Clondalkin",Dublin,Dublin,53.31840493567401,-6.437689034292305,Diesel,228.9,2026-03-20
Circle K Lucan,Circle K,Old Dublin Road,Lucan,Dublin,53.356355199999996,-6.447929200000001,Petrol,199.9,2026-03-20
Circle K Lucan,Circle K,Old Dublin Road,Lucan,Dublin,53.356355199999996,-6.447929200000001,Diesel,228.9,2026-03-20
Circle K,Circle K,"Castleknock Rd, Castleknock",Dublin,Dublin,53.37299,-6.361896,Petrol,199.9,2026-03-20
Circle K,Circle K,"Castleknock Rd, Castleknock",Dublin,Dublin,53.37299,-6.361896,Diesel,228.9,2026-03-20
Maxol M3 Mulhuddart Services,Maxol,"Navan Rd, Parslickstown",Mulhuddart,Dublin,53.4065665,-6.4104306,Petrol,199.9,2026-03-20
Maxol M3 Mulhuddart Services,Maxol,"Navan Rd, Parslickstown",Mulhuddart,Dublin,53.4065665,-6.4104306,Diesel,225.9,2026-03-20
Circle K Mulhuddart,Circle K,"15 Navan Rd, Coolmine",Dublin,Dublin,53.402175299999996,-6.3969103,Petrol,199.9,2026-03-20
Circle K Mulhuddart,Circle K,"15 Navan Rd, Coolmine",Dublin,Dublin,53.402175299999996,-6.3969103,Diesel,228.9,2026-03-20
Circle K Coolmine,Circle K,"15 Porters Rd, Coolmine Industrial Estate",Dublin,Dublin,53.385307,-6.396481,Petrol,199.9,2026-03-20
Circle K Coolmine,Circle K,"15 Porters Rd, Coolmine Industrial Estate",Dublin,Dublin,53.385307,-6.396481,Diesel,228.9,2026-03-20
Circle K Grosvenor,Circle K,425 Grosvenor Rd,Rathmines,Dublin,53.32083506457482,-6.2683108668679495,Diesel,228.9,2026-03-20
Circle K Stillorgan,Circle K,"N31, Greygates, Stillorgan Rd",Mount Merrion,Dublin,53.295406647766356,-6.2040872559639695,Petrol,199.9,2026-03-20
Circle K Stillorgan,Circle K,"N31, Greygates, Stillorgan Rd",Mount Merrion,Dublin,53.295406647766356,-6.2040872559639695,Diesel,228.9,2026-03-20
Centra Rathfarnham,Texaco,"14 Rathfarnham Rd, Rathfarnham",Dublin,Dublin,53.3009329,-6.2843513,Petrol,199.9,2026-03-20
Centra Rathfarnham,Texaco,"14 Rathfarnham Rd, Rathfarnham",Dublin,Dublin,53.3009329,-6.2843513,Diesel,228.9,2026-03-20
Circle K,Circle K,"Butterfield Ave, Rathfarnham",Dublin,Dublin,53.2953944,-6.2988649,Petrol,199.9,2026-03-20
Circle K,Circle K,"Butterfield Ave, Rathfarnham",Dublin,Dublin,53.2953944,-6.2988649,Diesel,228,2026-03-20
Circle K Cabra,Circle K,"R147, 146 Cabra Rd, Cabra East",Dublin,Dublin,53.3612057,-6.2914809,Petrol,199.9,2026-03-20
Circle K Cabra,Circle K,"R147, 146 Cabra Rd, Cabra East",Dublin,Dublin,53.3612057,-6.2914809,Diesel,228.9,2026-03-20
Applegreen,Applegreen,"St Agnes Rd, Crumlin",Dublin,Dublin,53.31679395910811,-6.316378987226187,Petrol,197.8,2026-03-20
Applegreen,Applegreen,"St Agnes Rd, Crumlin",Dublin,Dublin,53.31679395910811,-6.316378987226187,Diesel,219.8,2026-03-20
Maxol Service Station Cromwellsfort Rd,Maxol,"R818, 149 Cromwellsford Rd, Walkinstown",Dublin,Dublin,53.31669627539145,-6.319616533386153,Petrol,198.9,2026-03-20
Maxol Service Station Cromwellsfort Rd,Maxol,"R818, 149 Cromwellsford Rd, Walkinstown",Dublin,Dublin,53.31669627539145,-6.319616533386153,Diesel,221.9,2026-03-20
Circle K Greenhills Road,Circle K,"Greenhills Road, Tallaght",Dublin,Dublin,53.296101,-6.35415,Petrol,199.9,2026-03-20
Circle K Greenhills Road,Circle K,"Greenhills Road, Tallaght",Dublin,Dublin,53.296101,-6.35415,Diesel,228.9,2026-03-20
Maxol,Maxol,"1-3 Greenhills Rd, Greenhills",Dublin,Dublin,53.3066908,-6.348427999999999,Petrol,199.9,2026-03-20
Maxol,Maxol,"1-3 Greenhills Rd, Greenhills",Dublin,Dublin,53.3066908,-6.348427999999999,Diesel,221.9,2026-03-20
Maxol Service Station Ballymount Road,Maxol,"Ballymount Dr, Ballymount",Dublin,Dublin,53.3162103,-6.3436715999999995,Petrol,199.9,2026-03-20
Maxol Service Station Ballymount Road,Maxol,"Ballymount Dr, Ballymount",Dublin,Dublin,53.3162103,-6.3436715999999995,Diesel,221.9,2026-03-20
Maxol Service Station Navan Road,Maxol,"179 Navan Rd, Castleknock (part of Phoenix Park)",Dublin,Dublin,53.3664281,-6.3118921,Petrol,192.8,2026-03-20
Parnell Road Service Station,,"R111, Parnell Rd, Harolds Cross",Dublin,Dublin,53.329770102729526,-6.280152423192845,Petrol,197.8,2026-03-20
Parnell Road Service Station,,"R111, Parnell Rd, Harolds Cross",Dublin,Dublin,53.329770102729526,-6.280152423192845,Diesel,219.8,2026-03-20
Circle K Balrothery,Circle K,"Tallaght Bypass, Tymon South",Dublin,Dublin,53.28937629923291,-6.336032682095379,Diesel,228.9,2026-03-20
Circle K Glenview,Circle K,"Tallaght Bypass Rd, Tallaght",Dublin,Dublin,53.286927899999995,-6.3457357,Diesel,228.9,2026-03-20
Applegreen,Applegreen,"Abbey Rd, Kill Of The Grange",Monkstown,Dublin,53.2828296,-6.1586978,Petrol,194.8,2026-03-20
Centra Clonkeen,Texaco,"R827, Clonkeen Rd, Deansgrange",Blackrock,Dublin,53.2684753,-6.158616299999999,Petrol,199.9,2026-03-20
Newpark Service Station,Texaco,"Newtownpark Ave, Stillorgan Park",Dublin,Dublin,53.288760599999996,-6.175454299999999,Petrol,195.9,2026-03-20
Applegreen Santry,Applegreen,"R132, Swords Rd, Turnapin Great",Swords,Dublin,53.4121211,-6.239575299999999,Petrol,197.8,2026-03-20
Applegreen Santry,Applegreen,"R132, Swords Rd, Turnapin Great",Swords,Dublin,53.4121211,-6.239575299999999,Diesel,219.8,2026-03-20
Applegreen,Applegreen,"90 Tyrconnell Rd, Inchicore",Dublin,Dublin,53.335594699999994,-6.327179500000001,Petrol,197.8,2026-03-20
Applegreen,Applegreen,"90 Tyrconnell Rd, Inchicore",Dublin,Dublin,53.335594699999994,-6.327179500000001,Diesel,219.8,2026-03-20
Circle K Balbriggan,Circle K,"R132, Dublin St",Balbriggan,Dublin,53.6053674,-6.184372000000001,Diesel,228,2026-03-20
Applegreen,Applegreen,"Clonsilla Rd, Clonsilla",Dublin,Dublin,53.3833505,-6.4178522,Diesel,219.9,2026-03-20
Texaco N4,Texaco,Ballydowd,Lucan,Dublin,53.358801299999996,-6.4180903,Petrol,199.9,2026-03-20
Texaco N4,Texaco,Ballydowd,Lucan,Dublin,53.358801299999996,-6.4180903,Diesel,221.9,2026-03-20
Circle K Parkway East,Circle K,"Lucan Bypss/Chapelizod Bypass, Palmerston",Dublin,Dublin,53.35609386987514,-6.375392008996215,Diesel,219.9,2026-03-20
Applegreen,Applegreen,"Lucan Rd, Redcowfarm",Palmerstown,Dublin,53.3540589,-6.367134399999999,Petrol,193.8,2026-03-20
Applegreen,Applegreen,"Lucan Rd, Redcowfarm",Palmerstown,Dublin,53.3540589,-6.367134399999999,Diesel,214.8,2026-03-20
Centra Newtown,Texaco,"R107, 501 Malahide Rd, Newtown",Dublin,Dublin,53.395807899999994,-6.1885216,Diesel,213.9,2026-03-19
Circle K Glasnevin,Circle K,"R135, Finglas Rd",Glasnevin,Dublin,53.3709916259198,-6.281065509657225,Diesel,213.9,2026-03-19
Certa Liffey Valley,Certa,"Liffey Valley Shopping Complex, Fonthill Rd",Woodfarm,Dublin,53.34986801111401,-6.386889181173757,Petrol,196.9,2026-03-19
Certa Liffey Valley,Certa,"Liffey Valley Shopping Complex, Fonthill Rd",Woodfarm,Dublin,53.34986801111401,-6.386889181173757,Diesel,209.9,2026-03-19
Bradys at Coolquay,Maxol,"R135, Coolquoy Common",Coolquay,Dublin,53.45955180183455,-6.351556784175955,Petrol,199.9,2026-03-19
Bradys at Coolquay,Maxol,"R135, Coolquoy Common",Coolquay,Dublin,53.45955180183455,-6.351556784175955,Diesel,219.9,2026-03-19
Circle K,Circle K,"Main St, Blanchardstown",Dublin,Dublin,53.3907093,-6.3816296999999995,Petrol,199.9,2026-03-19
Circle K,Circle K,"Main St, Blanchardstown",Dublin,Dublin,53.3907093,-6.3816296999999995,Diesel,216.9,2026-03-19
Rolestown Service Station,Texaco,"R125, Killossery",Rolestown,Dublin,53.4878413,-6.3053906,Petrol,199.9,2026-03-19
Rolestown Service Station,Texaco,"R125, Killossery",Rolestown,Dublin,53.4878413,-6.3053906,Diesel,219.9,2026-03-19
Circle K West Pier,Circle K,"Crofton Rd., Dún Laoghaire, Co",Dublin,Dublin,53.295522000000005,-6.147793999999999,Petrol,199.1,2026-03-19
Circle K Kilmainham,Circle K,"647-657 S Circular Rd, Kilmainham",Dublin,Dublin,53.341300688172936,-6.3080181786498315,Petrol,199.9,2026-03-19
Circle K Kilmainham,Circle K,"647-657 S Circular Rd, Kilmainham",Dublin,Dublin,53.341300688172936,-6.3080181786498315,Diesel,219.9,2026-03-19
Mount Brown Service Station,Emo,"R810, Mount Brown, Saint James",Dublin,Dublin,53.341740973402636,-6.297205720805124,Petrol,189.9,2026-03-19
Mount Brown Service Station,Emo,"R810, Mount Brown, Saint James",Dublin,Dublin,53.341740973402636,-6.297205720805124,Diesel,209.9,2026-03-19
Dolphins Barn Service Station,Maxol,"R111, 16 Crumlin Rd, Dolphin's Barn, Drimnagh",Dublin,Dublin,53.332013115909945,-6.294089874157692,Petrol,191.9,2026-03-19
Dolphins Barn Service Station,Maxol,"R111, 16 Crumlin Rd, Dolphin's Barn, Drimnagh",Dublin,Dublin,53.332013115909945,-6.294089874157692,Diesel,209.9,2026-03-19
Spar Service Station,Go,"237 Crumlin Rd, Crumlin",Dublin,Dublin,53.3276240479307,-6.308386087529016,Petrol,189.9,2026-03-19
Spar Service Station,Go,"237 Crumlin Rd, Crumlin",Dublin,Dublin,53.3276240479307,-6.308386087529016,Diesel,209.9,2026-03-19
Circle K Parkway West,Circle K,"The Hill, Palmerstown Bypass, Palmerstown",Dublin,Dublin,53.353071138219605,-6.363702231579055,Petrol,199.9,2026-03-19
Circle K Parkway West,Circle K,"The Hill, Palmerstown Bypass, Palmerstown",Dublin,Dublin,53.353071138219605,-6.363702231579055,Diesel,219.9,2026-03-19
Circle K St Peter's Road,Circle K,"12 St Peter's Rd, Whitehall",Dublin,Dublin,53.31047322236236,-6.325629622853825,Petrol,199.9,2026-03-19
Circle K St Peter's Road,Circle K,"12 St Peter's Rd, Whitehall",Dublin,Dublin,53.31047322236236,-6.325629622853825,Diesel,219.9,2026-03-19
Go 24 Express,Go,87-89 Old Cabra Road,Cabra West,Dublin,53.36026173595269,-6.295386315021005,Petrol,189.9,2026-03-19
Certa 24/7,Certa,"R117, Sandyford Rd",Dundrum,Dublin,53.28534057938947,-6.239607577246375,Petrol,191.9,2026-03-19
Certa 24/7,Certa,"R117, Sandyford Rd",Dundrum,Dublin,53.28534057938947,-6.239607577246375,Diesel,209.9,2026-03-19
Airport Energy,Airport Energy ,"Old Airport Rd, Collinstown",Swords,Dublin,53.4161584556021,-6.239522758518461,Petrol,189.9,2026-03-19
Airport Energy,Airport Energy ,"Old Airport Rd, Collinstown",Swords,Dublin,53.4161584556021,-6.239522758518461,Diesel,204.9,2026-03-19
Circle K Eglington N11,Circle K,"Eglington, Bray Rd, Cabinteely",Dublin,Dublin,53.255041,-6.144714100000001,Petrol,191.9,2026-03-19
Circle K Eglington N11,Circle K,"Eglington, Bray Rd, Cabinteely",Dublin,Dublin,53.255041,-6.144714100000001,Diesel,112.9,2026-03-19
Circle K Centenary N11,Circle K,"Old, Bray Rd, Loughlinstown",Foxrock,Dublin,53.256276,-6.145999,Petrol,191.9,2026-03-19
Circle K Centenary N11,Circle K,"Old, Bray Rd, Loughlinstown",Foxrock,Dublin,53.256276,-6.145999,Diesel,112.9,2026-03-19
Applegreen,Applegreen,"R138, Stillorgan Rd, Merrion",Blackrock,Dublin,53.297976154822436,-6.2034653596228395,Petrol,189.9,2026-03-19
Applegreen,Applegreen,"R138, Stillorgan Rd, Merrion",Blackrock,Dublin,53.297976154822436,-6.2034653596228395,Diesel,209.8,2026-03-19
Applegreen,Applegreen,372 Merrion Rd,Blackrock,Dublin,53.3120099,-6.2015851,Petrol,192.8,2026-03-19
Applegreen,Applegreen,372 Merrion Rd,Blackrock,Dublin,53.3120099,-6.2015851,Diesel,212.8,2026-03-19
Merrion Gates Service Station,Texaco,"R118, 290 Merrion Rd",Dublin,Dublin,53.31451587030847,-6.202614100938888,Petrol,189.9,2026-03-19
Merrion Gates Service Station,Texaco,"R118, 290 Merrion Rd",Dublin,Dublin,53.31451587030847,-6.202614100938888,Diesel,209.9,2026-03-19
Circle K The Ward,Circle K,"R135, Old Ashbourne Rd, Broughan, The Ward",Dunsoghly,Dublin,53.42686125855991,-6.328950501360595,Petrol,191.8,2026-03-18
Circle K Apollo,Circle K,"14 Dundrum Rd, Dundrum",Dublin,Dublin,53.294701,-6.24639,Petrol,191.9,2026-03-18
Circle K Apollo,Circle K,"14 Dundrum Rd, Dundrum",Dublin,Dublin,53.294701,-6.24639,Diesel,212.9,2026-03-18
Circle K Taney,Circle K,"14 Taney Rd, Kilmacud West",Dublin,Dublin,53.2927767,-6.2306244,Petrol,191.9,2026-03-18
Circle K Taney,Circle K,"14 Taney Rd, Kilmacud West",Dublin,Dublin,53.2927767,-6.2306244,Diesel,212.9,2026-03-18
Maxol Service Station Tymon,Maxol,"Tymon N Rd, Tallaght",Dublin,Dublin,53.2999686,-6.348558799999999,Petrol,189.9,2026-03-17
Maxol Service Station Tymon,Maxol,"Tymon N Rd, Tallaght",Dublin,Dublin,53.2999686,-6.348558799999999,Diesel,209.9,2026-03-17
Bradys Service Station @ Spawell,Maxol,"Tallaght Rd, Spawell",Dublin,Dublin,53.2917261,-6.3265316,Petrol,190.9,2026-03-17
Bradys Service Station @ Spawell,Maxol,"Tallaght Rd, Spawell",Dublin,Dublin,53.2917261,-6.3265316,Diesel,209.9,2026-03-17
Circle K Cranley,Circle K,"Cranley Centre Naas Road Dublin 22, Fox-And-Geese, Cranley",Dublin,Dublin,53.321396,-6.3573303,Diesel,209.9,2026-03-17
Ninth Lock Service Station,Circle K,"L1026, 2 Ninth Lock Rd, Ballymanaggin, Clondalkin",Dublin,Dublin,53.3295309422773,-6.39793916660264,Diesel,209.9,2026-03-17
Circle K Rathcoole,Circle K,"Naas Rd, Rathcoole",Dublin,Dublin,53.283078499999995,-6.468665,Diesel,209.9,2026-03-17
Applegreen,Applegreen,"Naas Rd, Tootenhill",Rathcoole,Dublin,53.278267199999995,-6.4879888,Diesel,209.8,2026-03-17
Certa,Certa,"R132, Swords Rd, Dardistown, Santry",Dublin,Dublin,53.41444277516359,-6.239176390392316,Petrol,186.9,2026-03-17
Certa,Certa,"R132, Swords Rd, Dardistown, Santry",Dublin,Dublin,53.41444277516359,-6.239176390392316,Diesel,205.9,2026-03-17
O’Connor’s Foxrock Service Station,Texaco,"Brighton Rd, Foxrock",Dublin,Dublin,53.266460594287196,-6.1840787687288525,Petrol,195.9,2026-03-17
Kilmacud Service Station,Texaco,"R825, 81 Lower Kilmacud Rd, Stillorgan",Dublin,Dublin,53.288720059484064,-6.20434944598054,Petrol,196.7,2026-03-17
Kilmacud Service Station,Texaco,"R825, 81 Lower Kilmacud Rd, Stillorgan",Dublin,Dublin,53.288720059484064,-6.20434944598054,Diesel,212.9,2026-03-17
Applegreen,Applegreen,"Shankill Rd, Shankill",Dublin,Dublin,53.23506090000001,-6.1257668,Petrol,191.8,2026-03-17
Applegreen,Applegreen,"Shankill Rd, Shankill",Dublin,Dublin,53.23506090000001,-6.1257668,Diesel,209.8,2026-03-17
Applegreen Mountgorry,Applegreen,"R106, Swords Rd, Mountgorry",Swords,Dublin,53.45395514736981,-6.2036744033898685,Petrol,187.8,2026-03-16
Applegreen Mountgorry,Applegreen,"R106, Swords Rd, Mountgorry",Swords,Dublin,53.45395514736981,-6.2036744033898685,Diesel,205.8,2026-03-16
Applegreen,Applegreen,"Millfield Shopping Centre, Tankardstown",Balbriggan,Dublin,53.607616,-6.1991857999999995,Diesel,207.8,2026-03-15
Circle K Swords,Circle K,"Milton Fields Service Station, 6 Dublin Rd, Miltonsfields",Swords,Dublin,53.4534453,-6.224236299999999,Diesel,209.9,2026-03-15
Circle K Airside,Circle K,"R132, Nevinstown Ln",Swords,Dublin,53.4440497,-6.228930900000001,Diesel,209.1,2026-03-15
Ballyboughal Service Station,Emo,"R108, Main St, The Grange",Ballyboughal,Dublin,53.51762295731916,-6.266436097450821,Petrol,187.9,2026-03-15
Ballyboughal Service Station,Emo,"R108, Main St, The Grange",Ballyboughal,Dublin,53.51762295731916,-6.266436097450821,Diesel,217.9,2026-03-15
Killester Service Station,Applegreen,"223 Howth Rd, Killester",Dublin,Dublin,53.373420200000005,-6.2004589999999995,Petrol,185.8,2026-03-15
Killester Service Station,Applegreen,"223 Howth Rd, Killester",Dublin,Dublin,53.373420200000005,-6.2004589999999995,Diesel,205.8,2026-03-15
Applegreen,Applegreen,"16 Ballinteer Ave, Ballinteer",Dublin,Dublin,53.274488299999994,-6.2594163,Petrol,187.8,2026-03-15
Applegreen,Applegreen,"16 Ballinteer Ave, Ballinteer",Dublin,Dublin,53.274488299999994,-6.2594163,Diesel,204.8,2026-03-15
Maxol Service Station Ballinteer,Maxol,"Ballinteer Ave, Ballinteer",Dublin,Dublin,53.275794,-6.2515393,Petrol,186.9,2026-03-15
Maxol Service Station Ballinteer,Maxol,"Ballinteer Ave, Ballinteer",Dublin,Dublin,53.275794,-6.2515393,Diesel,209.9,2026-03-15
Certa Express,Certa,"24 Ballymount Rd Upper, D24",Ballymount,Dublin,53.3107595,-6.3554432,Petrol,183.9,2026-03-15
Certa Express,Certa,"24 Ballymount Rd Upper, D24",Ballymount,Dublin,53.3107595,-6.3554432,Diesel,207.9,2026-03-15
Circle K Ballymun,Circle K,"Balcurris, Ballymun Cross",Dublin,Dublin,53.403251499999996,-6.2646223,Petrol,187.9,2026-03-15
Circle K Kilternan,Circle K,"Enniskerry Rd, Glenamuck South",Kiltiernan,Dublin,53.235723799999995,-6.192908399999999,Petrol,187.9,2026-03-15
Circle K Kilternan,Circle K,"Enniskerry Rd, Glenamuck South",Kiltiernan,Dublin,53.235723799999995,-6.192908399999999,Diesel,205.9,2026-03-15
Spar Kylemore Rd,Go,"12 Kylemore Road, Inchicore",Dublin,Dublin,53.32921178322738,-6.344865898378913,Diesel,205.9,2026-03-14
Circle K Fonthill,Circle K,"Fonthill Rd S, Brideswell Commons",Dublin,Dublin,53.314430699999996,-6.3939338999999995,Petrol,186.9,2026-03-14
Circle K Fonthill,Circle K,"Fonthill Rd S, Brideswell Commons",Dublin,Dublin,53.314430699999996,-6.3939338999999995,Diesel,209.9,2026-03-14
Centra Artane,Texaco,"Butterly Business Park, Kilmore Rd, Beaumont",Dublin,Dublin,53.384043,-6.214417500000001,Petrol,186.9,2026-03-14
Centra Artane,Texaco,"Butterly Business Park, Kilmore Rd, Beaumont",Dublin,Dublin,53.384043,-6.214417500000001,Diesel,209.9,2026-03-14
East Wall Service Station,Independent,"E Wall Rd, North Dock",Dublin,Dublin,53.357368300000005,-6.2328442,Petrol,189.9,2026-03-14
East Wall Service Station,Independent,"E Wall Rd, North Dock",Dublin,Dublin,53.357368300000005,-6.2328442,Diesel,205.9,2026-03-14
Circle K Finglas,Circle K,"North Road, Finglas North",Dublin,Dublin,53.399490479455494,-6.306956257940271,Petrol,186.9,2026-03-13
Circle K Finglas,Circle K,"North Road, Finglas North",Dublin,Dublin,53.399490479455494,-6.306956257940271,Diesel,209.9,2026-03-13
Applegreen,Applegreen,"250-252, Sarsfield Rd, Kilmainham",Dublin,Dublin,53.342841799999995,-6.333944499999999,Petrol,182.8,2026-03-12
Applegreen,Applegreen,"250-252, Sarsfield Rd, Kilmainham",Dublin,Dublin,53.342841799999995,-6.333944499999999,Diesel,204.8,2026-03-12
KCR Service Station,Maxol,"R818, 140 Kimmage Rd W, Terenure",Dublin,Dublin,53.3119020678829,-6.299560758461183,Petrol,189.9,2026-03-12
KCR Service Station,Maxol,"R818, 140 Kimmage Rd W, Terenure",Dublin,Dublin,53.3119020678829,-6.299560758461183,Diesel,208.9,2026-03-12
Circle K Sundrive,Circle K,"Sundrive Rd, Kimmage Rd Lower, Kimmage",Terenure,Dublin,53.3173069,-6.2929163,Petrol,182.9,2026-03-12
Circle K Sundrive,Circle K,"Sundrive Rd, Kimmage Rd Lower, Kimmage",Terenure,Dublin,53.3173069,-6.2929163,Diesel,205.9,2026-03-12
Applegreen,Applegreen,"The Laurels, Clondalkin",Dublin,Dublin,53.3211228,-6.3914311999999995,Diesel,204.8,2026-03-11
Maxol Service Station Templeogue,Maxol,"Templeogue Rd, Terenure",Dublin,Dublin,53.298669499999995,-6.3033434,Petrol,184.9,2026-03-11
Maxol Service Station Templeogue,Maxol,"Templeogue Rd, Terenure",Dublin,Dublin,53.298669499999995,-6.3033434,Diesel,199.9,2026-03-11
Circle K Dublin Airport,Circle K,"Dublin Airport, Corballis",Dublin,Dublin,53.42882137997941,-6.234741574536116,Diesel,205.9,2026-03-11
Certa 24/7,Certa,"R135, Clearwater, Finglas Rd, Finglas",Dublin,Dublin,53.383854667029055,-6.296153834763288,Petrol,182.9,2026-03-11
Certa 24/7,Certa,"R135, Clearwater, Finglas Rd, Finglas",Dublin,Dublin,53.383854667029055,-6.296153834763288,Diesel,205.9,2026-03-11
Maxol Walkinstown Avenue,Maxol,"Walkinstown Ave, Walkinstown",Dublin,Dublin,53.323021742589816,-6.340621471574508,Petrol,186.9,2026-03-11
Maxol Walkinstown Avenue,Maxol,"Walkinstown Ave, Walkinstown",Dublin,Dublin,53.323021742589816,-6.340621471574508,Diesel,199.9,2026-03-11
Top Oil Portmarnock Service Station,Top,"R106, Strand Rd",Portmarnock,Dublin,53.419560600000004,-6.140126599999999,Diesel,206.1,2026-03-10
Circle K Fortfield,Circle K,6 Fortfield Rd,Kimmage,Dublin,53.310629245516225,-6.302605171684007,Petrol,182.9,2026-03-10
Circle K Fortfield,Circle K,6 Fortfield Rd,Kimmage,Dublin,53.310629245516225,-6.302605171684007,Diesel,192.9,2026-03-10
Maxol Service Station Ringsend,Maxol,"Ringsend Rd, Ringsend",Dublin,Dublin,53.34176,-6.2349682,Petrol,194.9,2026-03-10
Maxol Service Station Ringsend,Maxol,"Ringsend Rd, Ringsend",Dublin,Dublin,53.34176,-6.2349682,Diesel,199.9,2026-03-10
Amien Street Service Station,Independent,"Amiens St, North Wall",Dublin,Dublin,53.35359385327837,-6.247550278069639,Petrol,194.9,2026-03-10
Amien Street Service Station,Independent,"Amiens St, North Wall",Dublin,Dublin,53.35359385327837,-6.247550278069639,Diesel,204.9,2026-03-10
Circle K Nevin,Circle K,"Nevin Service Station, 59 Ballymun Rd, Glasnevin",Dublin,Dublin,53.3820749,-6.2661872,Petrol,184.9,2026-03-10
Circle K Nevin,Circle K,"Nevin Service Station, 59 Ballymun Rd, Glasnevin",Dublin,Dublin,53.3820749,-6.2661872,Diesel,205.9,2026-03-10
Certa Dublin,Certa,"Greenhills Rd, Tallaght",Dublin,Dublin,53.295858248246304,-6.353658716495687,Diesel,201.9,2026-03-10
Top Oil Collinstown,Top,"Collinstown Business Park, Swords Rd, Cloghran",Santry,Dublin,53.41363164261324,-6.2375055517183,Diesel,193.8,2026-03-10
Roundtower Service Station,Applegreen,"R132, Corduff",Lusk,Dublin,53.524747299999994,-6.1897864,Petrol,189.9,2026-03-10
Roundtower Service Station,Applegreen,"R132, Corduff",Lusk,Dublin,53.524747299999994,-6.1897864,Diesel,199.9,2026-03-10
Applegreen,Applegreen,"Military Rd, Ballybrack",Dublin,Dublin,53.2526356,-6.1238833999999995,Petrol,182.8,2026-03-09
Applegreen,Applegreen,"Military Rd, Ballybrack",Dublin,Dublin,53.2526356,-6.1238833999999995,Diesel,199.8,2026-03-09
Maxol Service Station Turvey,Maxol,"Turvey, Junction 4, Staffordstown",Donabate,Dublin,53.49258866841262,-6.196704159415077,Petrol,185.9,2026-03-09
Maxol Service Station Turvey,Maxol,"Turvey, Junction 4, Staffordstown",Donabate,Dublin,53.49258866841262,-6.196704159415077,Diesel,195.9,2026-03-09
Corrib Oil Texaco Shankill,Texaco,"R119, Shanganagh Rd",Shankill,Dublin,53.23945052423326,-6.123263254041319,Diesel,198.9,2026-03-09
Rochestown Service Station,Texaco,"R828, Rochestown Ave, Johnstown",Dun Laoghaire,Dublin,53.2711075876945,-6.143922616902273,Petrol,181.8,2026-03-09
Circle K,Circle K,"Rochestown Ave, Rochestown Domain",Dún,Dublin,53.270218899999996,-6.1415951,Petrol,181.8,2026-03-09
Circle K Westview,Circle K,Lissenhall,Swords,Dublin,53.4867582,-6.197775,Diesel,197.9,2026-03-07
Texaco,Texaco,"Old Bray Road, Cornelscourt",Dublin,Dublin,53.2687527,-6.166222899999999,Petrol,186.9,2026-03-07
Texaco,Texaco,"Old Bray Road, Cornelscourt",Dublin,Dublin,53.2687527,-6.166222899999999,Diesel,199.9,2026-03-07
Maxol Service Station Sallynoggin,Maxol,"20 Sallynoggin Rd, Sallynoggin",Dublin,Dublin,53.2767303,-6.1431802,Petrol,178.9,2026-03-05
Maxol Service Station Sallynoggin,Maxol,"20 Sallynoggin Rd, Sallynoggin",Dublin,Dublin,53.2767303,-6.1431802,Diesel,178.9,2026-03-05
Maxol Service Station Harold's Cross,Maxol,"231-235, Harold's Cross Rd, Leinster Rd W",Dublin,Dublin,53.3202327,-6.2786444,Petrol,170.9,2026-03-05
Maxol Service Station Harold's Cross,Maxol,"231-235, Harold's Cross Rd, Leinster Rd W",Dublin,Dublin,53.3202327,-6.2786444,Diesel,175.9,2026-03-05
KCR Service Station,Maxol,"140 Kimmage Rd W, Terenure",Dublin,Dublin,53.312054494562744,-6.29960845758265,Petrol,175.9,2026-03-05
KCR Service Station,Maxol,"140 Kimmage Rd W, Terenure",Dublin,Dublin,53.312054494562744,-6.29960845758265,Diesel,175.9,2026-03-05
Circle K Skerries,Circle K,"R127, Dublin Road, Townparks",Skerries,Dublin,53.5770956,-6.112967599999999,Petrol,178.9,2025-07-19
Circle K Dalkey,Circle K,"3 Ulverton Rd, Co",Dublin,Dublin,53.2788514,-6.1072123,Petrol,169.8,2026-02-27
Circle K Dalkey,Circle K,"3 Ulverton Rd, Co",Dublin,Dublin,53.2788514,-6.1072123,Diesel,169.8,2026-02-27
Certa 24hr,Certa,"R107, Malahide Rd, Clare Hall",Dublin,Dublin,53.40087411485911,-6.181483488954797,Petrol,173.9,2026-02-27
Certa 24hr,Certa,"R107, Malahide Rd, Clare Hall",Dublin,Dublin,53.40087411485911,-6.181483488954797,Diesel,173.9,2026-02-27
McKee Avenue Service Station,Top,"McKee Ave, Finglas",Dublin,Dublin,53.39102321782701,-6.29887986412777,Petrol,176.9,2026-02-26
McKee Avenue Service Station,Top,"McKee Ave, Finglas",Dublin,Dublin,53.39102321782701,-6.29887986412777,Diesel,176.9,2026-02-26
Circle K Belmont,Circle K,126 Sandford Rd,Dublin,Dublin,53.319998299999995,-6.243801599999999,Petrol,172.8,2026-02-22
Circle K Belmont,Circle K,126 Sandford Rd,Dublin,Dublin,53.319998299999995,-6.243801599999999,Diesel,172.8,2026-02-22
Texaco,Texaco,"Monastery Road, Enniskerry",Dublin,Dublin,53.2033979,-6.1759429,Petrol,173.9,2026-02-22
Texaco,Texaco,"Monastery Road, Enniskerry",Dublin,Dublin,53.2033979,-6.1759429,Diesel,172.9,2026-02-22
Circle K Express Ushers Quay,Circle K,"R148, 15-21 Usher's Quay, River Liffey",Dublin,Dublin,53.3454268668323,-6.277853007401973,Petrol,174.9,2026-02-16
Circle K Express Ushers Quay,Circle K,"R148, 15-21 Usher's Quay, River Liffey",Dublin,Dublin,53.3454268668323,-6.277853007401973,Diesel,174.9,2026-02-16
Applegreen,Applegreen,"372 Ballyfermot Rd, Ballyfermot Upper",Dublin,Dublin,53.3440156,-6.3704228999999994,Petrol,172.8,2026-02-11
Applegreen,Applegreen,"372 Ballyfermot Rd, Ballyfermot Upper",Dublin,Dublin,53.3440156,-6.3704228999999994,Diesel,172.8,2026-02-11
Circle K,Circle K,"Omni Park Shopping Centre, Swords Rd, Santry",Dublin,Dublin,53.3934268,-6.2469468,Petrol,173.9,2026-02-09
Circle K,Circle K,"Omni Park Shopping Centre, Swords Rd, Santry",Dublin,Dublin,53.3934268,-6.2469468,Diesel,172.9,2026-02-09
Circle K Clonshaugh,Circle K,"17 Clonshaugh Rd, Clonshagh",Swords,Dublin,53.412582400000005,-6.2168025,Petrol,173.8,2026-02-07
Circle K Clonshaugh,Circle K,"17 Clonshaugh Rd, Clonshagh",Swords,Dublin,53.412582400000005,-6.2168025,Diesel,173.8,2026-02-07
Applegreen,Applegreen,"Knocklyon Rd, Knocklyon",Dublin,Dublin,53.2885493,-6.310732300000001,Petrol,173.8,2026-02-01
Applegreen,Applegreen,"Knocklyon Rd, Knocklyon",Dublin,Dublin,53.2885493,-6.310732300000001,Diesel,173.8,2026-02-01
Top Oil Raheny Service Station,Top,"338/340 Howth Rd, Clontarf East",Raheny,Dublin,53.3760317,-6.192813,Petrol,173.9,2026-02-01
Top Oil Raheny Service Station,Top,"338/340 Howth Rd, Clontarf East",Raheny,Dublin,53.3760317,-6.192813,Diesel,173.9,2026-02-01
Maxol Service Station Swords Road,Maxol,"309 Swords Rd, Whitehall",Dublin,Dublin,53.391385799999995,-6.2466639,Petrol,172.9,2026-01-30
Maxol Service Station Swords Road,Maxol,"309 Swords Rd, Whitehall",Dublin,Dublin,53.391385799999995,-6.2466639,Diesel,172.9,2026-01-30
Maxol Service Station Sandyford Road,Maxol,"Sandyford Rd, Dundrum",Dublin,Dublin,53.272884,-6.2279089999999995,Petrol,174.9,2026-01-18
Maxol Service Station Sandyford Road,Maxol,"Sandyford Rd, Dundrum",Dublin,Dublin,53.272884,-6.2279089999999995,Diesel,173.9,2026-01-18
Applegreen,Applegreen,"Clonskeagh Rd, Rathmines",Dublin,Dublin,53.313865199999995,-6.2380982,Petrol,171.8,2026-01-16
Applegreen,Applegreen,"Clonskeagh Rd, Rathmines",Dublin,Dublin,53.313865199999995,-6.2380982,Diesel,171.8,2026-01-16
The Huntsman Service Station,Maxol,"R110, Long Mile Rd",Dublin,Dublin,53.32376222999335,-6.350759142177367,Petrol,169.9,2026-01-09
The Huntsman Service Station,Maxol,"R110, Long Mile Rd",Dublin,Dublin,53.32376222999335,-6.350759142177367,Diesel,170.9,2026-01-09
Maxol Service Station Mespil Road,Maxol,Mespil Rd,Dublin,Dublin,53.3338731,-6.2461858,Petrol,172.9,2026-01-08
Maxol Service Station Mespil Road,Maxol,Mespil Rd,Dublin,Dublin,53.3338731,-6.2461858,Diesel,172.9,2026-01-08
Circle K Blessington Road,Circle K,"Blessington Rd, Tallaght",Dublin,Dublin,53.2744563,-6.4102526,Diesel,170.8,2025-12-20
Applegreen Grange,Applegreen,"Grange Rd, Baldoyle",Dublin,Dublin,53.3969941,-6.1453735,Petrol,171.8,2025-12-20
Applegreen Grange,Applegreen,"Grange Rd, Baldoyle",Dublin,Dublin,53.3969941,-6.1453735,Diesel,169.8,2025-12-20
Circle K The Square,Circle K,"The Square, Tallaght",Dublin,Dublin,53.2851998,-6.3751235,Petrol,172.8,2025-12-18
Circle K The Square,Circle K,"The Square, Tallaght",Dublin,Dublin,53.2851998,-6.3751235,Diesel,170.8,2025-12-18
Elm Park Service Station,Circle K,"R118, 196 Elm Park, Merrion Rd",Dublin,Dublin,53.318335491709774,-6.210805225566645,Petrol,175.8,2025-12-09
Elm Park Service Station,Circle K,"R118, 196 Elm Park, Merrion Rd",Dublin,Dublin,53.318335491709774,-6.210805225566645,Diesel,175.8,2025-12-09
D4 Fuels,Independent,"R118, 124 Northumberland Rd, Ballsbridge",Dublin,Dublin,53.33271255227294,-6.235930776272255,Diesel,164.9,2025-12-06
Circle K Taylor's Lane,Circle K,"Taylor's Ln, Rathfarnham",Dublin,Dublin,53.281410099999995,-6.2897780999999995,Petrol,174.8,2025-12-04
Circle K Taylor's Lane,Circle K,"Taylor's Ln, Rathfarnham",Dublin,Dublin,53.281410099999995,-6.2897780999999995,Diesel,174.8,2025-12-04
Maxol - Richmond Road,Maxol,"134 Richmond Rd, Ballybough",Dublin,Dublin,53.366435499999994,-6.2495142,Petrol,169.9,2025-11-29
Maxol - Richmond Road,Maxol,"134 Richmond Rd, Ballybough",Dublin,Dublin,53.366435499999994,-6.2495142,Diesel,169.9,2025-11-29
Circle K Templeville,Circle K,"Templeville Rd, Templeogue",Dublin,Dublin,53.3044836,-6.3138397,Petrol,175.8,2025-11-25
Circle K Templeville,Circle K,"Templeville Rd, Templeogue",Dublin,Dublin,53.3044836,-6.3138397,Diesel,175.8,2025-11-25
Brady's Service Station,Circle K,"R147, Navan Rd",Castleknock,Dublin,53.37821071043638,-6.34969838093528,Petrol,183.9,2025-11-22
Brady's Service Station,Circle K,"R147, Navan Rd",Castleknock,Dublin,53.37821071043638,-6.34969838093528,Diesel,181.9,2025-11-22
Maxol Service Station Ballycoolin,Maxol,"N2/N3, Link Road, Goddamendy",Dublin,Dublin,53.415352899999995,-6.362149199999999,Petrol,183.9,2025-11-22
Maxol Service Station Ballycoolin,Maxol,"N2/N3, Link Road, Goddamendy",Dublin,Dublin,53.415352899999995,-6.362149199999999,Diesel,175.9,2025-11-22
Spar Express Hollystown,Emo,"Hollystown, Mulhuddart",Dublin,Dublin,53.4287132,-6.3745027,Petrol,186.9,2025-11-22
Spar Express Hollystown,Emo,"Hollystown, Mulhuddart",Dublin,Dublin,53.4287132,-6.3745027,Diesel,181.9,2025-11-22
Circle K Artane,Circle K,Malahide Rd,Artane,Dublin,53.381887299999995,-6.2079768,Petrol,174.9,2025-11-19
Circle K Artane,Circle K,Malahide Rd,Artane,Dublin,53.381887299999995,-6.2079768,Diesel,172.9,2025-11-19
Circle K Malahide,Circle K,"R106, Main St, The Mall",Malahide,Dublin,53.45080220352091,-6.152018013276177,Petrol,176.8,2025-11-18
Circle K Malahide,Circle K,"R106, Main St, The Mall",Malahide,Dublin,53.45080220352091,-6.152018013276177,Diesel,173.8,2025-11-18
Applegreen,Applegreen,"54-56, Howth Rd, Clontarf West",Dublin,Dublin,53.365963799999996,-6.2241903999999995,Petrol,174.8,2025-11-16
Applegreen,Applegreen,"54-56, Howth Rd, Clontarf West",Dublin,Dublin,53.365963799999996,-6.2241903999999995,Diesel,172.8,2025-11-16
Circle K Ashtown,Circle K,"R147, 15 Navan Rd",Dublin,Dublin,53.37791650293494,-6.3510834997217955,Petrol,179.8,2025-11-03
Circle K Ashtown,Circle K,"R147, 15 Navan Rd",Dublin,Dublin,53.37791650293494,-6.3510834997217955,Diesel,175.8,2025-11-03
SailIn Garage,NA,"Drogheda St, Tankardstown",Balbriggan,Dublin,53.613756099999996,-6.1899147999999995,Petrol,175.9,2025-11-02
SailIn Garage,NA,"Drogheda St, Tankardstown",Balbriggan,Dublin,53.613756099999996,-6.1899147999999995,Diesel,171.9,2025-11-02
Applegreen,Applegreen,"Malahide Rd, Kinsealy",Dublin,Dublin,53.4191218,-6.1766712,Petrol,175.8,2025-10-31
Applegreen,Applegreen,"Malahide Rd, Kinsealy",Dublin,Dublin,53.4191218,-6.1766712,Diesel,172.8,2025-10-31
Circle K Beaumont,Circle K,"9 Beaumont Rd, Whitehall",Dublin,Dublin,53.385445,-6.233752,Petrol,173.8,2025-10-24
Circle K Beaumont,Circle K,"9 Beaumont Rd, Whitehall",Dublin,Dublin,53.385445,-6.233752,Diesel,169.8,2025-10-24
JH McLoughlin Dublin,NA,"Drogheda St, Tankardstown, Dublin",Balbriggan,Dublin,53.612111299999995,-6.1878081,Petrol,174.9,2025-10-11
JH McLoughlin Dublin,NA,"Drogheda St, Tankardstown, Dublin",Balbriggan,Dublin,53.612111299999995,-6.1878081,Diesel,171.9,2025-10-11
Applegreen M1 Balbriggan,Applegreen,"Rowans Road, Courtlough",M1,Dublin,53.5648209,-6.2118404,Petrol,174.8,2025-09-23
Applegreen M1 Balbriggan,Applegreen,"Rowans Road, Courtlough",M1,Dublin,53.5648209,-6.2118404,Diesel,170.8,2025-09-23
Applegreen,Applegreen,"Fortunestown Road, Kiltalown",Tallaght,Dublin,53.2782005,-6.3985750999999995,Petrol,171.9,2025-09-18
Applegreen,Applegreen,"Fortunestown Road, Kiltalown",Tallaght,Dublin,53.2782005,-6.3985750999999995,Diesel,167.9,2025-09-18
Maxol Service Station Donabate,Maxol,"Hearse Rd, Donabate",Dublin,Dublin,53.484272,-6.1545074,Petrol,177.9,2025-08-20
Maxol Service Station Donabate,Maxol,"Hearse Rd, Donabate",Dublin,Dublin,53.484272,-6.1545074,Diesel,176.9,2025-08-20
Circle K Belgard,Circle K,"Belgard Rd, Tallaght",Dublin,Dublin,53.297966599999995,-6.3721198999999995,Petrol,170.9,2025-08-12
Circle K Belgard,Circle K,"Belgard Rd, Tallaght",Dublin,Dublin,53.297966599999995,-6.3721198999999995,Diesel,169.9,2025-08-12
Newcastle Service Station,NA,Templemills,Dublin,Dublin,53.2961253,-6.4926359,Petrol,173.9,2025-08-07
Newcastle Service Station,NA,Templemills,Dublin,Dublin,53.2961253,-6.4926359,Diesel,171.9,2025-08-07
Circle K Foxhall,Circle K,Howth Rd,Raheny,Dublin,53.3801857,-6.1609583,Petrol,170.9,2025-06-26
Circle K Foxhall,Circle K,Howth Rd,Raheny,Dublin,53.3801857,-6.1609583,Diesel,165.9,2025-06-26
Clondalkin Service Station,Maxol,"Ninth Lock Rd, Clondalkin",Dublin,Dublin,53.32574746287847,-6.394845391934979,Petrol,172.7,2025-05-13
Clondalkin Service Station,Maxol,"Ninth Lock Rd, Clondalkin",Dublin,Dublin,53.32574746287847,-6.394845391934979,Diesel,168.7,2025-05-13
Maxol Auto24 Sutton,Maxol,"Dublin Rd, Kilbarrack Lower",Dublin,Dublin,53.3854349,-6.1416002,Petrol,171.7,2025-05-08
Maxol Auto24 Sutton,Maxol,"Dublin Rd, Kilbarrack Lower",Dublin,Dublin,53.3854349,-6.1416002,Diesel,160.9,2025-05-08
Rush Oil Service Station,Top,"The Cross, Main Street",Rush,Dublin,53.5229649,-6.0985287999999995,Petrol,169.9,2025-04-06
Rush Oil Service Station,Top,"The Cross, Main Street",Rush,Dublin,53.5229649,-6.0985287999999995,Diesel,169.9,2025-04-06
Applegreen Ballymount,Applegreen,"M50 Business Park, Ballymount Avenue, D12",Kilnamanagh,Dublin,53.3095677,-6.3509132,Petrol,169.8,2025-06-14
Applegreen Ballymount,Applegreen,"M50 Business Park, Ballymount Avenue, D12",Kilnamanagh,Dublin,53.3095677,-6.3509132,Diesel,193.8,2025-06-14
Circle K Ballyboden,Circle K,"Ballyboden Rd, Rathfarnham",Dublin,Dublin,53.2844342,-6.2951587,Petrol,171.8,2025-04-28
Circle K Ballyboden,Circle K,"Ballyboden Rd, Rathfarnham",Dublin,Dublin,53.2844342,-6.2951587,Diesel,166.8,2025-04-28
Maxol Service Station Baldoyle,Maxol,"Baldoyle Rd, Burrow, Baldoyle",Dublin,Dublin,53.3912638,-6.1242981,Petrol,171.9,2025-05-25
Maxol Service Station Baldoyle,Maxol,"Baldoyle Rd, Burrow, Baldoyle",Dublin,Dublin,53.3912638,-6.1242981,Diesel,166.9,2025-05-25
Circle K Dublin Port,Circle K,"Dublin Port, Bond Dr Ext, North Dock",Dublin,Dublin,53.35396480000001,-6.2129942,Petrol,182.9,2024-06-03
Circle K Dublin Port,Circle K,"Dublin Port, Bond Dr Ext, North Dock",Dublin,Dublin,53.35396480000001,-6.2129942,Diesel,177.9,2024-06-03
Maxol Auto24 Westside,Maxol,"Westside Shopping Centre, Westside",Galway,Galway,53.275604699999995,-9.0767279,Petrol,213.9,2026-03-19
Maxol Auto24 Westside,Maxol,"Westside Shopping Centre, Westside",Galway,Galway,53.275604699999995,-9.0767279,Diesel,194.9,2026-03-19
Bearna Service Station,Texaco,"R336, Bearna Rd, Freeport",Bearna,Galway,53.25160435140103,-9.147465850178065,Petrol,213.8,2026-03-19
Bearna Service Station,Texaco,"R336, Bearna Rd, Freeport",Bearna,Galway,53.25160435140103,-9.147465850178065,Diesel,195.8,2026-03-19
Slemon's Service Station,Top,"R336, Barr Na gCurragh",Furbogh,Galway,53.2492169,-9.2098915,Petrol,215.9,2026-03-19
Slemon's Service Station,Top,"R336, Barr Na gCurragh",Furbogh,Galway,53.2492169,-9.2098915,Diesel,195.9,2026-03-19
Carnmore Service Station,Maxol,"R339, Galway Airport, Carnmore",Galway,Galway,53.303668,-8.942148,Diesel,203.9,2026-03-19
The Galway Plaza,NA,"Junction 16, Carrowkeel",Kiltullagh,Galway,53.264508299999996,-8.6066974,Petrol,192.9,2026-03-18
The Galway Plaza,NA,"Junction 16, Carrowkeel",Kiltullagh,Galway,53.264508299999996,-8.6066974,Diesel,209.9,2026-03-18
Circle K Newcastle,Circle K,Newcastle Rd,Galway,Galway,53.2817693,-9.0648149,Petrol,190.9,2026-03-18
Circle K Newcastle,Circle K,Newcastle Rd,Galway,Galway,53.2817693,-9.0648149,Diesel,212.9,2026-03-18
Top Oil Oughterard Service Station,Top,"Cregg Cl, Cregg",Oughterard,Galway,53.427933499999995,-9.3178513,Petrol,185.9,2026-03-18
Top Oil Oughterard Service Station,Top,"Cregg Cl, Cregg",Oughterard,Galway,53.427933499999995,-9.3178513,Diesel,208.9,2026-03-18
Top Oil Carna Service Station,Top,"Siopa Dowd, Rusheennamanagh",Carna,Galway,53.324524999999994,-9.81789,Petrol,191.9,2026-03-17
Top Oil Carna Service Station,Top,"Siopa Dowd, Rusheennamanagh",Carna,Galway,53.324524999999994,-9.81789,Diesel,205.9,2026-03-17
Texaco An Spiddal,Texaco,Spiddle West,Spiddal,Galway,53.2442454,-9.3020453,Petrol,191.9,2026-03-16
Texaco An Spiddal,Texaco,Spiddle West,Spiddal,Galway,53.2442454,-9.3020453,Diesel,208.9,2026-03-16
Centra Corofin,NA,Ballybanagher,Corrofin,Galway,53.437335999999995,-8.861920999999999,Diesel,25.9,2026-03-13
Fahys Service Station,Top,Ballyglass,Turloughmore,Galway,53.381955182062256,-8.854505124971837,Diesel,199.9,2026-03-12
Sweeney Oil,Go,Gortyloughlin,Danesfield,Galway,53.3410352,-9.1854252,Petrol,184.9,2026-03-12
Sweeney Oil,Go,Gortyloughlin,Danesfield,Galway,53.3410352,-9.1854252,Diesel,205.9,2026-03-12
Top Oil Moycullen Service Station,Top,"Galway Road, Ballycuirke West",Moycullen,Galway,53.33553,-9.176995699999999,Petrol,186.9,2026-03-12
Top Oil Moycullen Service Station,Top,"Galway Road, Ballycuirke West",Moycullen,Galway,53.33553,-9.176995699999999,Diesel,202.9,2026-03-12
Circle K Express Tuam Road,Circle K,Tuam Rd,Ballybane,Galway,53.293124999999996,-9.017921,Petrol,184.9,2026-03-12
Circle K Express Tuam Road,Circle K,Tuam Rd,Ballybane,Galway,53.293124999999996,-9.017921,Diesel,205.9,2026-03-12
Top Oil Carnmore Service Station,Top,"R339, Carnmore West, Carnmore Cross",Oranmore,Galway,53.304893899999996,-8.930759199999999,Petrol,187.8,2026-03-12
Top Oil Carnmore Service Station,Top,"R339, Carnmore West, Carnmore Cross",Oranmore,Galway,53.304893899999996,-8.930759199999999,Diesel,199.8,2026-03-12
Sweeney Oil,NA,"Purcell House, Claregalway Road, Carrowmoneash",Oranmore,Galway,53.281142499999994,-8.9262476,Petrol,183.8,2026-03-11
Sweeney Oil,NA,"Purcell House, Claregalway Road, Carrowmoneash",Oranmore,Galway,53.281142499999994,-8.9262476,Diesel,198.8,2026-03-11
Centra Oranmore,NA,"Main St, Oran More, Galway",Oranmore,Galway,53.268153,-8.930185999999999,Petrol,187.8,2026-03-11
Centra Oranmore,NA,"Main St, Oran More, Galway",Oranmore,Galway,53.268153,-8.930185999999999,Diesel,199.8,2026-03-11
Certa,Certa,"N83, Cahergowan Or Summerfield",Claregalway,Galway,53.3415366,-8.945212999999999,Petrol,182.9,2026-03-09
Certa,Certa,"N83, Cahergowan Or Summerfield",Claregalway,Galway,53.3415366,-8.945212999999999,Diesel,202.9,2026-03-09
Centra Tuam Road,NA,"Petrol Filling Station, Tuam Rd",Galway,Galway,53.292170999999996,-9.0192,Petrol,184.9,2026-03-06
McCormack's Filling Station,Texaco,"N63, Tuam Rd, Cloonreleagh",Mountbellew,Galway,53.47396173175497,-8.51812240418991,Petrol,176.9,2026-03-04
McCormack's Filling Station,Texaco,"N63, Tuam Rd, Cloonreleagh",Mountbellew,Galway,53.47396173175497,-8.51812240418991,Diesel,176.9,2026-03-04
Circle K College Rd,Circle K,College Rd,Galway,Galway,53.281435599999995,-9.0347548,Petrol,175.8,2025-11-05
Circle K College Rd,Circle K,College Rd,Galway,Galway,53.281435599999995,-9.0347548,Diesel,172.8,2025-11-05
Circle K Bohermore,Circle K,Bohermore,Galway,Galway,53.282152916219076,-9.038731318940336,Petrol,174.8,2026-01-26
Circle K Bohermore,Circle K,Bohermore,Galway,Galway,53.282152916219076,-9.038731318940336,Diesel,172.8,2026-01-26
Texaco,Texaco,101 Lower Salthill,Galway,Galway,53.2633164,-9.0720122,Petrol,174.9,2026-02-15
Texaco,Texaco,101 Lower Salthill,Galway,Galway,53.2633164,-9.0720122,Diesel,174.9,2026-02-15
Maxol Service Station Whitestrand,Maxol,"R864, Salthill Rd Lower, Whitestrand",Salthill,Galway,53.267453314679386,-9.066639279866308,Petrol,175.9,2026-02-15
Maxol Service Station Whitestrand,Maxol,"R864, Salthill Rd Lower, Whitestrand",Salthill,Galway,53.267453314679386,-9.066639279866308,Diesel,174.9,2026-02-15
Applegreen,Applegreen,Tuam Rd,Galway,Galway,53.2870266,-9.0308586,Petrol,174.9,2026-01-26
Applegreen,Applegreen,Tuam Rd,Galway,Galway,53.2870266,-9.0308586,Diesel,172.9,2026-01-26
Sweeney Oil,Sweeney Oil,"R336, Tuam Rd",Galway,Galway,53.289972720243384,-9.02076062268128,Petrol,172.9,2026-01-06
Sweeney Oil,Sweeney Oil,"R336, Tuam Rd",Galway,Galway,53.289972720243384,-9.02076062268128,Diesel,170.9,2026-01-06
Loughnane's Service Station,Independent,"R354, Ballyglass",Turloughmore,Galway,53.38816096276946,-8.84642919283354,Petrol,170.9,2025-11-27
Loughnane's Service Station,Independent,"R354, Ballyglass",Turloughmore,Galway,53.38816096276946,-8.84642919283354,Diesel,170.9,2025-11-27
Go Station Portumna,Go,"Bridge Rd, Fairyhill",Portumna,Galway,53.0948472,-8.204571099999999,Petrol,164.9,2025-11-17
Go Station Portumna,Go,"Bridge Rd, Fairyhill",Portumna,Galway,53.0948472,-8.204571099999999,Diesel,159.9,2025-11-17
Sweeney Oil Headford Road,NA,"Headford Point, Headford Rd",Galway,Galway,53.2858352,-9.0451641,Petrol,175.9,2025-11-02
Sweeney Oil Headford Road,NA,"Headford Point, Headford Rd",Galway,Galway,53.2858352,-9.0451641,Diesel,172.9,2025-11-02
Joyce's Service Station Dublin Road,Top,"R347, Dublin Road, Knockaunglass",Athenry,Galway,53.2975942,-8.742844999999999,Petrol,176.9,2025-10-18
Joyce's Service Station Dublin Road,Top,"R347, Dublin Road, Knockaunglass",Athenry,Galway,53.2975942,-8.742844999999999,Diesel,174.9,2025-10-18
Every Day,Applegreen,"R942, The Hill, Farranalynch",Loughrea,Galway,53.2010338963986,-8.556132643569072,Petrol,172.9,2025-10-19
Every Day,Applegreen,"R942, The Hill, Farranalynch",Loughrea,Galway,53.2010338963986,-8.556132643569072,Diesel,170.9,2025-10-19
Centra Moylough,NA,"N63, Centra",Moylough,Galway,53.4871579,-8.563771899999999,Petrol,174.9,2025-10-18
Centra Moylough,NA,"N63, Centra",Moylough,Galway,53.4871579,-8.563771899999999,Diesel,170.9,2025-10-18
"Maxol Service Station, Kilmartin's",Maxol,Townparks,Ballinasloe,Galway,53.3297186,-8.2085408,Petrol,176.9,2025-10-18
"Maxol Service Station, Kilmartin's",Maxol,Townparks,Ballinasloe,Galway,53.3297186,-8.2085408,Diesel,173.9,2025-10-18
Emo Fuel Station Ballinasloe,Emo,"Brackernagh, Dunlo",Ballinasloe,Galway,53.3246878,-8.237127599999999,Petrol,174.9,2025-10-18
Emo Fuel Station Ballinasloe,Emo,"Brackernagh, Dunlo",Ballinasloe,Galway,53.3246878,-8.237127599999999,Diesel,173.9,2025-10-18
Brackernagh Service Station - Corrib Oil,Circle K Express,"R446, Brackernagh, Garbally Demesne",Ballinasloe,Galway,53.32287207026164,-8.240976492826519,Petrol,175.9,2025-10-18
Brackernagh Service Station - Corrib Oil,Circle K Express,"R446, Brackernagh, Garbally Demesne",Ballinasloe,Galway,53.32287207026164,-8.240976492826519,Diesel,173.9,2025-10-18
Applegreen,Applegreen,Mackney,Ballinasloe,Galway,53.3195537,-8.2431574,Petrol,173.9,2025-10-18
Applegreen,Applegreen,Mackney,Ballinasloe,Galway,53.3195537,-8.2431574,Diesel,169.9,2025-10-18
Top Oil Ad Fuels Athenry Service Station,Top,Old Church St,Athenry,Galway,53.297463799999996,-8.749354499999999,Petrol,176.6,2025-10-18
Top Oil Ad Fuels Athenry Service Station,Top,Old Church St,Athenry,Galway,53.297463799999996,-8.749354499999999,Diesel,174.9,2025-10-18
Texaco,Texaco,Lough Atalia Rd,Galway,Galway,53.2714558,-9.0452625,Petrol,172.8,2025-10-11
Texaco,Texaco,Lough Atalia Rd,Galway,Galway,53.2714558,-9.0452625,Diesel,169.8,2025-10-11
Applegreen Moylough Service Station,Applegreen,"N63, 2 The Nurseries, Ballinasloe",Moylough,Galway,53.48841979877716,-8.572338745654577,Petrol,170.9,2025-10-10
Applegreen Moylough Service Station,Applegreen,"N63, 2 The Nurseries, Ballinasloe",Moylough,Galway,53.48841979877716,-8.572338745654577,Diesel,169.9,2025-10-10
Circle K Express Corofin,Circle K,Ballybanagher,Corrofin,Galway,53.437354,-8.861899,Petrol,173.9,2025-09-26
Circle K Express Corofin,Circle K,Ballybanagher,Corrofin,Galway,53.437354,-8.861899,Diesel,169.9,2025-09-26
Corrib Oil,Corrib,Tuam Rd,Galway,Galway,53.2917456,-9.017972900000002,Diesel,167.9,2025-08-23
Corrib Oil Loughrea Petrol Station,Corrib,"Dublin Rd, Caherwalter",Loughrea,Galway,53.2013376,-8.5567809,Petrol,170.9,2025-08-13
Corrib Oil Loughrea Petrol Station,Corrib,"Dublin Rd, Caherwalter",Loughrea,Galway,53.2013376,-8.5567809,Diesel,169.9,2025-08-13
Topaz Loghrea,Top,Tynagh,Loughrea,Galway,53.201331499999995,-8.5568969,Diesel,170.9,2025-08-13
O'Farrells Salthill,Inver,"Salthill, Co. Galway, H91 N8CY",Salthill,Galway,53.2583868,-9.1009964,Petrol,179.9,2024-07-31
O'Farrells Salthill,Inver,"Salthill, Co. Galway, H91 N8CY",Salthill,Galway,53.2583868,-9.1009964,Diesel,173.9,2024-07-31
Circle K Kilcolgan,Circle K,"N67, Killeely More",Kilcolgan,Galway,53.2087107,-8.8686145,Petrol,182.9,2025-02-23
Top Oil Carraroe,Top,"Sruthán, Clynagh",Carraroe,Galway,53.27297110000001,-9.5834642,Petrol,179.9,2024-08-03
Top Oil Carraroe,Top,"Sruthán, Clynagh",Carraroe,Galway,53.27297110000001,-9.5834642,Diesel,173.9,2024-08-03
Emo Kinvara,Emo,"N67, Ballybranagan",Kinvara,Galway,53.1395555,-8.9538645,Petrol,172.4,2025-04-21
Tí Mhartín Bán,NA,"Costello (Opp R na G Crossroad, Derrynea, Co. Galway",Costelloe,Galway,53.289085099999994,-9.554404199999999,Petrol,179.9,2024-07-31
Tí Mhartín Bán,NA,"Costello (Opp R na G Crossroad, Derrynea, Co. Galway",Costelloe,Galway,53.289085099999994,-9.554404199999999,Diesel,173.9,2024-07-31
Top Oil Knocknacarra Filling Station,Top,"R336 1 Kilkerran Park, Lisoban Industrial Estate, Knocknacarra Rd",Galway,Galway,53.2585231,-9.1032475,Petrol,198.9,2024-05-25
Top Oil Knocknacarra Filling Station,Top,"R336 1 Kilkerran Park, Lisoban Industrial Estate, Knocknacarra Rd",Galway,Galway,53.2585231,-9.1032475,Diesel,192.9,2024-05-25
Applegreen Service Station Dunmore,Applegreen,Bridge St,Dunmore,Galway,53.619326199999996,-8.7418997,Petrol,178.8,2024-05-25
Applegreen Service Station Dunmore,Applegreen,Bridge St,Dunmore,Galway,53.619326199999996,-8.7418997,Diesel,168.8,2024-05-25
Circle K,Circle K,72 Seamus Quirke Rd,Galway,Galway,53.277293099999994,-9.0720885,Petrol,180.9,2025-02-09
Circle K,Circle K,72 Seamus Quirke Rd,Galway,Galway,53.277293099999994,-9.0720885,Diesel,180.9,2025-02-09
Top Oil Reeks Filling Station,Top,"Tralee Road, N22, Ardnamweely",Killarney,Kerry,52.0683891,-9.5164002,Petrol,184.9,2026-03-17
